{
	"data": [
		{
			"id": 8026,
			"name": "TCA Internet",
			"aka": "",
			"name_long": "",
			"website": "http://www.tca.com.br",
			"notes": "",
			"address1": "Rua Ernesto Alves, 2797",
			"address2": "",
			"city": "Taquara",
			"country": "BR",
			"state": "RS",
			"zipcode": "95600482",
			"floor": "",
			"suite": "",
			"latitude": null,
			"longitude": null,
			"created": "2012-11-04T12:29:18Z",
			"updated": "2018-09-03T02:31:06Z",
			"status": "ok"
		},
		{
			"id": 8225,
			"name": "Tri Telecom",
			"aka": "",
			"name_long": "",
			"website": "http://www.tri.com.br",
			"notes": "",
			"address1": "Avenida Assis Brasil, 7802",
			"address2": "Sarandi",
			"city": "Porto Alegre",
			"country": "BR",
			"state": "RS",
			"zipcode": "91140-000",
			"floor": "",
			"suite": "",
			"latitude": -29.9859,
			"longitude": -51.120453,
			"created": "2013-07-30T11:25:56Z",
			"updated": "2022-04-29T03:10:07Z",
			"status": "ok"
		},
		{
			"id": 8505,
			"name": "AdylNET Telecom",
			"aka": "AdylNET Telecom",
			"name_long": "",
			"website": "https://www.adylnet.com.br/",
			"notes": "",
			"address1": "Avenida Borges De Medeiros, 566",
			"address2": "Nova Prata - RS",
			"city": "Nova Prata",
			"country": "BR",
			"state": "RS",
			"zipcode": "95320-000",
			"floor": "",
			"suite": "",
			"latitude": -28.781786,
			"longitude": -51.609918,
			"created": "2010-09-13T17:55:30Z",
			"updated": "2022-03-10T01:32:49Z",
			"status": "ok"
		},
		{
			"id": 8520,
			"name": "RMS Informática",
			"aka": "RMS Telecom",
			"name_long": "",
			"website": "https://www.rmstelecom.net/",
			"notes": "",
			"address1": "R. Pedro Cincinato Borges, 130",
			"address2": "",
			"city": "Torres",
			"country": "BR",
			"state": "RS",
			"zipcode": "95560-000",
			"floor": "",
			"suite": "",
			"latitude": null,
			"longitude": null,
			"created": "2013-10-30T08:56:47Z",
			"updated": "2021-10-13T19:21:27Z",
			"status": "ok"
		},
		{
			"id": 8605,
			"name": "Osirnet Info Telecom",
			"aka": "",
			"name_long": "Osirnet",
			"website": "http://www.osirnet.com.br",
			"notes": "",
			"address1": "Rua Pr. Anchieta 1240 lj10",
			"address2": "",
			"city": "Pelotas",
			"country": "BR",
			"state": "RS",
			"zipcode": "96015420",
			"floor": "",
			"suite": "",
			"latitude": null,
			"longitude": null,
			"created": "2013-11-19T12:07:00Z",
			"updated": "2022-10-20T18:26:19Z",
			"status": "ok"
		},
		{
			"id": 8881,
			"name": "NovaNET Provedoria e Telecomunicações",
			"aka": "",
			"name_long": "",
			"website": "http://nova.net.br/",
			"notes": "",
			"address1": "R GENERAL OSORIO, 392",
			"address2": "",
			"city": "CANGUCU",
			"country": "BR",
			"state": "RS",
			"zipcode": "96.600-000",
			"floor": "",
			"suite": "",
			"latitude": null,
			"longitude": null,
			"created": "2014-02-25T08:13:45Z",
			"updated": "2018-09-05T14:37:15Z",
			"status": "ok"
		},
		{
			"id": 9158,
			"name": "G2NET SUL PROVEDOR LTDA",
			"aka": "",
			"name_long": "",
			"website": "http://g2netsul.com.br/",
			"notes": "",
			"address1": "av. rubens bento alves 3292",
			"address2": "av. rubens bento alves 3292",
			"city": "Caxias do Sul",
			"country": "BR",
			"state": "RS",
			"zipcode": "95034242",
			"floor": "",
			"suite": "",
			"latitude": null,
			"longitude": null,
			"created": "2014-04-22T21:57:07Z",
			"updated": "2019-05-28T20:03:03Z",
			"status": "ok"
		},
		{
			"id": 9633,
			"name": "Tche Turbo Provedor de Internet LTDA",
			"aka": "",
			"name_long": "",
			"website": "https://tcheturbo.com.br/",
			"notes": "",
			"address1": "",
			"address2": "",
			"city": "Frederico Westphalen",
			"country": "BR",
			"state": "RS",
			"zipcode": "98400000",
			"floor": "",
			"suite": "",
			"latitude": null,
			"longitude": null,
			"created": "2014-07-21T09:52:31Z",
			"updated": "2021-02-01T18:39:52Z",
			"status": "ok"
		},
		{
			"id": 9786,
			"name": "BrPhonia Provedor IP LTDA",
			"aka": "",
			"name_long": "",
			"website": "http://www.brphonia.com.br",
			"notes": "",
			"address1": "Avenida Santa Cruz, 572 Sala 01",
			"address2": "Centro",
			"city": "Santa Rosa",
			"country": "BR",
			"state": "RS",
			"zipcode": "98780-750",
			"floor": "",
			"suite": "",
			"latitude": -27.868473,
			"longitude": -54.479905,
			"created": "2014-07-21T10:11:05Z",
			"updated": "2021-11-23T19:16:31Z",
			"status": "ok"
		},
		{
			"id": 9914,
			"name": "3E TELECOM",
			"aka": "3eNET",
			"name_long": "3E Telecom Ltda",
			"website": "http://www.3enet.com.br/",
			"notes": "",
			"address1": "",
			"address2": "",
			"city": "Sananduva",
			"country": "BR",
			"state": "RS",
			"zipcode": "99840-000",
			"floor": "",
			"suite": "",
			"latitude": null,
			"longitude": null,
			"created": "2014-09-08T15:03:40Z",
			"updated": "2021-11-24T16:52:50Z",
			"status": "ok"
		},
		{
			"id": 10084,
			"name": "NaJa Telecomunicações LTDA",
			"aka": "",
			"name_long": "",
			"website": "http://www.najatelecom.com.br",
			"notes": "",
			"address1": "Rua Alexandre Pedron, 1460",
			"address2": "",
			"city": "Flores da Cunha",
			"country": "BR",
			"state": "RS",
			"zipcode": "95270-000",
			"floor": "",
			"suite": "",
			"latitude": null,
			"longitude": null,
			"created": "2014-09-24T10:56:01Z",
			"updated": "2020-05-20T19:58:51Z",
			"status": "ok"
		},
		{
			"id": 10817,
			"name": "Sygo Internet",
			"aka": "Sygo Internet",
			"name_long": "Proserver Telecomunicações Ltda",
			"website": "http://www.sygo.com.br",
			"notes": "",
			"address1": "",
			"address2": "",
			"city": "Santo Cristo",
			"country": "BR",
			"state": "RS",
			"zipcode": "",
			"floor": "",
			"suite": "",
			"latitude": null,
			"longitude": null,
			"created": "2015-02-19T07:29:36Z",
			"updated": "2021-11-24T18:17:58Z",
			"status": "ok"
		},
		{
			"id": 11017,
			"name": "RENOVARE TELECOM",
			"aka": "",
			"name_long": "",
			"website": "http://renovaretelecom.com.br",
			"notes": "",
			"address1": "Av 25 de Julho, 375",
			"address2": "Centro",
			"city": "Dois Irmãos",
			"country": "BR",
			"state": "RS",
			"zipcode": "93950000",
			"floor": "",
			"suite": "",
			"latitude": null,
			"longitude": null,
			"created": "2015-03-25T20:04:37Z",
			"updated": "2018-05-11T14:14:03Z",
			"status": "ok"
		},
		{
			"id": 11505,
			"name": "Websul Telecom",
			"aka": "",
			"name_long": "",
			"website": "http://www.websul.net.br",
			"notes": "",
			"address1": "Av. Fernandes Bastos, 2201/205",
			"address2": "",
			"city": "Tramandai",
			"country": "BR",
			"state": "RS",
			"zipcode": "95590000",
			"floor": "",
			"suite": "",
			"latitude": null,
			"longitude": null,
			"created": "2015-05-15T13:20:24Z",
			"updated": "2016-07-18T19:10:37Z",
			"status": "ok"
		},
		{
			"id": 11688,
			"name": "FB comunicação Multimedia LTDA",
			"aka": "Fbnet",
			"name_long": "Fbnet",
			"website": "https://fbnet.com.br",
			"notes": "",
			"address1": "Avenida 7 de Setembro, 878",
			"address2": "Moinhos",
			"city": "Lajeado",
			"country": "BR",
			"state": "RS",
			"zipcode": "95900-832",
			"floor": "",
			"suite": "",
			"latitude": -29.460722,
			"longitude": -51.976331,
			"created": "2014-06-16T10:28:27Z",
			"updated": "2022-10-14T17:07:29Z",
			"status": "ok"
		},
		{
			"id": 11842,
			"name": "Frugui Telecom",
			"aka": "",
			"name_long": "",
			"website": "http://www.websul.net.br",
			"notes": "Subsidiary of Websul Telecom (52851).",
			"address1": "Av. Fernandes Bastos, 2201/205",
			"address2": "",
			"city": "Tramandai",
			"country": "BR",
			"state": "RS",
			"zipcode": "95590000",
			"floor": "",
			"suite": "",
			"latitude": null,
			"longitude": null,
			"created": "2015-05-21T14:34:53Z",
			"updated": "2018-01-05T00:19:32Z",
			"status": "ok"
		},
		{
			"id": 12800,
			"name": "DGNET TELECOM",
			"aka": "",
			"name_long": "",
			"website": "http://www.dgnet.com.br",
			"notes": "",
			"address1": "Av. Alto Jacui, 813 - Centro - Sala 111",
			"address2": "",
			"city": "Não-Me-Toque",
			"country": "BR",
			"state": "RS",
			"zipcode": "99.470-000",
			"floor": "",
			"suite": "",
			"latitude": null,
			"longitude": null,
			"created": "2015-08-05T17:34:42Z",
			"updated": "2017-04-03T20:55:19Z",
			"status": "ok"
		},
		{
			"id": 12865,
			"name": "ACEM TELECOM",
			"aka": "",
			"name_long": "",
			"website": "http://www.acem.net.br",
			"notes": "",
			"address1": "R. Edu Chaves, 547",
			"address2": "",
			"city": "Porto Alegre",
			"country": "BR",
			"state": "RS",
			"zipcode": "902406209",
			"floor": "",
			"suite": "",
			"latitude": null,
			"longitude": null,
			"created": "2015-11-17T12:17:44Z",
			"updated": "2016-10-06T21:43:57Z",
			"status": "ok"
		},
		{
			"id": 12908,
			"name": "Fundação Vale do Taquari de Educação e Des. Social",
			"aka": "",
			"name_long": "",
			"website": "http://www.univates.br",
			"notes": "",
			"address1": "Rua Avelino Talini, 171",
			"address2": "",
			"city": "Lajeado",
			"country": "BR",
			"state": "RS",
			"zipcode": "95914-014",
			"floor": "",
			"suite": "",
			"latitude": null,
			"longitude": null,
			"created": "2015-11-25T12:42:22Z",
			"updated": "2019-08-27T12:55:27Z",
			"status": "ok"
		},
		{
			"id": 13976,
			"name": "Providus DOO",
			"aka": "",
			"name_long": "",
			"website": "https://www.providus.rs",
			"notes": "",
			"address1": "Vlajkoviceva 6a",
			"address2": "",
			"city": "Belgrade",
			"country": "RS",
			"state": "RS",
			"zipcode": "11000",
			"floor": "",
			"suite": "",
			"latitude": null,
			"longitude": null,
			"created": "2016-04-14T19:08:16Z",
			"updated": "2017-07-03T12:16:42Z",
			"status": "ok"
		},
		{
			"id": 13991,
			"name": "TECCLOUD SERVIÇOS DE TECNOLOGIA AHU S.A.",
			"aka": "",
			"name_long": "",
			"website": "http://www.teccloud.com",
			"notes": "",
			"address1": "Avenida dos Municipios, 5510",
			"address2": "",
			"city": "Campo Bom",
			"country": "BR",
			"state": "RS",
			"zipcode": "93700-000",
			"floor": "",
			"suite": "",
			"latitude": null,
			"longitude": null,
			"created": "2016-04-16T13:35:08Z",
			"updated": "2019-08-27T20:07:27Z",
			"status": "ok"
		},
		{
			"id": 14243,
			"name": "RBT Internet",
			"aka": "RBT Internet",
			"name_long": "",
			"website": "https://rbt.psi.br",
			"notes": "",
			"address1": "Av. do Trabalhador, 90, Várzea Grande",
			"address2": "",
			"city": "Gramado",
			"country": "BR",
			"state": "RS",
			"zipcode": "95670000",
			"floor": "",
			"suite": "",
			"latitude": -29.420434,
			"longitude": -50.865965,
			"created": "2016-05-22T19:55:13Z",
			"updated": "2021-08-27T11:30:00Z",
			"status": "ok"
		},
		{
			"id": 14254,
			"name": "BLUE3 TECNOLOGIA EIRELI",
			"aka": "BLUE3",
			"name_long": "BLUE3 INTERNET",
			"website": "https://blue3.com.br",
			"notes": "",
			"address1": "Avenida Pernambuco, 2623",
			"address2": "São Geraldo",
			"city": "Porto Alegre",
			"country": "BR",
			"state": "RS",
			"zipcode": "90240-005",
			"floor": "",
			"suite": "",
			"latitude": -30.016041,
			"longitude": -51.202333,
			"created": "2016-05-24T21:16:18Z",
			"updated": "2021-10-18T15:39:31Z",
			"status": "ok"
		},
		{
			"id": 14451,
			"name": "TECMIDIAWEB LTDA",
			"aka": "",
			"name_long": "",
			"website": "http://www.tmw.net.br",
			"notes": "",
			"address1": "Rua Dona Clara, 1118",
			"address2": "Centro",
			"city": "Charqueadas",
			"country": "BR",
			"state": "RS",
			"zipcode": "96745-000",
			"floor": "",
			"suite": "",
			"latitude": null,
			"longitude": null,
			"created": "2016-06-20T17:43:08Z",
			"updated": "2017-03-06T13:17:39Z",
			"status": "ok"
		},
		{
			"id": 14649,
			"name": "ANDRA TELECOM",
			"aka": "",
			"name_long": "",
			"website": "http://www.andra.net.br",
			"notes": "",
			"address1": "Rua Prof Marcos Martini 1389",
			"address2": "",
			"city": "Caxias do Sul",
			"country": "BR",
			"state": "RS",
			"zipcode": "95032-500",
			"floor": "",
			"suite": "",
			"latitude": null,
			"longitude": null,
			"created": "2016-07-22T21:47:12Z",
			"updated": "2021-12-01T16:20:05Z",
			"status": "ok"
		},
		{
			"id": 14798,
			"name": "TKNET Serviços de Internet",
			"aka": "",
			"name_long": "",
			"website": "http://www.tknet.com.br",
			"notes": "",
			"address1": "Rua Osvaldo Aranha, 2080",
			"address2": "Andar Terreo - Centro",
			"city": "Taquari",
			"country": "BR",
			"state": "RS",
			"zipcode": "95860000",
			"floor": "",
			"suite": "",
			"latitude": null,
			"longitude": null,
			"created": "2016-08-17T21:38:39Z",
			"updated": "2019-07-29T13:56:34Z",
			"status": "ok"
		},
		{
			"id": 14900,
			"name": "JBMNET TELECOM",
			"aka": "",
			"name_long": "",
			"website": "http://www.jbmnet.net.br/",
			"notes": "",
			"address1": "Rua Luiz Zorrer, 111",
			"address2": "Bairro Santa Helena",
			"city": "Bento Gonçalves",
			"country": "BR",
			"state": "RS",
			"zipcode": "95702550",
			"floor": "",
			"suite": "",
			"latitude": null,
			"longitude": null,
			"created": "2016-08-26T19:48:01Z",
			"updated": "2016-08-29T12:41:39Z",
			"status": "ok"
		},
		{
			"id": 15035,
			"name": "Sebratel Tecnologia LTDA",
			"aka": "",
			"name_long": "",
			"website": "http://www.sebratel.com.br",
			"notes": "",
			"address1": "Rua Pinto Bandeira",
			"address2": "",
			"city": "Scharlau, São Leopoldo",
			"country": "BR",
			"state": "RS",
			"zipcode": "",
			"floor": "",
			"suite": "",
			"latitude": null,
			"longitude": null,
			"created": "2016-09-10T16:56:58Z",
			"updated": "2018-08-27T20:26:46Z",
			"status": "ok"
		},
		{
			"id": 15387,
			"name": "Master Net Telecom LTDA",
			"aka": "",
			"name_long": "",
			"website": "https://masternetrs.com.br",
			"notes": "",
			"address1": "",
			"address2": "",
			"city": "Cachoeirinha",
			"country": "BR",
			"state": "RS",
			"zipcode": "94955070",
			"floor": "",
			"suite": "",
			"latitude": null,
			"longitude": null,
			"created": "2016-10-29T22:44:26Z",
			"updated": "2019-12-23T12:19:25Z",
			"status": "ok"
		},
		{
			"id": 15395,
			"name": "Virtu@lnet Telecom",
			"aka": "",
			"name_long": "",
			"website": "https://virtualnet-telecom.com.br/",
			"notes": "",
			"address1": "Rua Capitão Camboim, 191",
			"address2": "Centro",
			"city": "Sapucaia do Sul",
			"country": "BR",
			"state": "RS",
			"zipcode": "93220-070",
			"floor": "",
			"suite": "",
			"latitude": null,
			"longitude": null,
			"created": "2016-10-29T23:22:21Z",
			"updated": "2020-08-16T19:24:16Z",
			"status": "ok"
		},
		{
			"id": 15524,
			"name": "Maila Networks",
			"aka": "Maila",
			"name_long": "Maila Networks",
			"website": "https://www.maila.net.br",
			"notes": "",
			"address1": "R. Siqueira Campos, 1193",
			"address2": "",
			"city": "Porto Alegre",
			"country": "BR",
			"state": "RS",
			"zipcode": "90010-001",
			"floor": "2 and 9",
			"suite": "901",
			"latitude": null,
			"longitude": null,
			"created": "2016-11-18T19:41:01Z",
			"updated": "2021-12-31T20:54:12Z",
			"status": "ok"
		},
		{
			"id": 15664,
			"name": "HPN TELECOMUNICACOES LTDA",
			"aka": "HPN TELECOM",
			"name_long": "HPN TELECOMUNICAÇÕES TLDA",
			"website": "http://www.hpntelecom.com.br",
			"notes": "",
			"address1": "Avenida Paulo Lauda, 580",
			"address2": "Tancredo Neves",
			"city": "Santa Maria",
			"country": "BR",
			"state": "RS",
			"zipcode": "97032-000",
			"floor": "",
			"suite": "",
			"latitude": -29.699707,
			"longitude": -53.8747,
			"created": "2016-12-04T16:31:40Z",
			"updated": "2021-10-25T15:26:00Z",
			"status": "ok"
		},
		{
			"id": 15891,
			"name": "i9NET - PROVEDOR DE INTERNET LTDA - ME",
			"aka": "",
			"name_long": "",
			"website": "http://www.i9net.net.br",
			"notes": "",
			"address1": "",
			"address2": "",
			"city": "Porto Alegre",
			"country": "BR",
			"state": "RS",
			"zipcode": "",
			"floor": "",
			"suite": "",
			"latitude": null,
			"longitude": null,
			"created": "2016-12-29T16:47:04Z",
			"updated": "2020-01-01T17:49:31Z",
			"status": "ok"
		},
		{
			"id": 15922,
			"name": "IAGENTE",
			"aka": "",
			"name_long": "",
			"website": "http://www.iagente.com.br",
			"notes": "",
			"address1": "Rua dos Açores 68, cj 501",
			"address2": "Passo D'Areia",
			"city": "Porto Alegre",
			"country": "BR",
			"state": "RS",
			"zipcode": "91030-340",
			"floor": "",
			"suite": "",
			"latitude": null,
			"longitude": null,
			"created": "2017-01-05T09:41:26Z",
			"updated": "2017-01-05T11:30:22Z",
			"status": "ok"
		},
		{
			"id": 17083,
			"name": "Rede Conesul Telecomunicações LTDA",
			"aka": "",
			"name_long": "",
			"website": "http://www.conesul.net/",
			"notes": "",
			"address1": "Rua Mariz e Barros, 48",
			"address2": "",
			"city": "Alegrete",
			"country": "BR",
			"state": "RS",
			"zipcode": "",
			"floor": "",
			"suite": "",
			"latitude": null,
			"longitude": null,
			"created": "2017-05-24T06:15:15Z",
			"updated": "2017-08-18T01:43:55Z",
			"status": "ok"
		},
		{
			"id": 17102,
			"name": "Universidade Federal do Rio Grande do Sul",
			"aka": "",
			"name_long": "",
			"website": "http://www.tche.br",
			"notes": "",
			"address1": "Rua Ramiro Barcelos, 2574",
			"address2": "",
			"city": "Porto Alegre",
			"country": "BR",
			"state": "RS",
			"zipcode": "90035003",
			"floor": "",
			"suite": "",
			"latitude": null,
			"longitude": null,
			"created": "2017-05-25T17:24:04Z",
			"updated": "2018-07-19T19:41:00Z",
			"status": "ok"
		},
		{
			"id": 17194,
			"name": "RNVCORP",
			"aka": "CORPORATE TELECOM",
			"name_long": "",
			"website": "https://rnvcorp.com.br/",
			"notes": "",
			"address1": "Presidente Lucena, 3746 L8",
			"address2": "Centro",
			"city": "Estancia Velha",
			"country": "BR",
			"state": "RS",
			"zipcode": "93600-320",
			"floor": "",
			"suite": "",
			"latitude": null,
			"longitude": null,
			"created": "2017-06-06T00:07:32Z",
			"updated": "2021-03-30T20:07:08Z",
			"status": "ok"
		},
		{
			"id": 17353,
			"name": "RENAN HAAS 00577374010",
			"aka": "",
			"name_long": "",
			"website": "http://www.logonweb.inf.br",
			"notes": "",
			"address1": "Rua Armando Ruschel 443 GRESSLER",
			"address2": "Sala 02",
			"city": "Venancio Aires",
			"country": "BR",
			"state": "RS",
			"zipcode": "95800-000",
			"floor": "",
			"suite": "",
			"latitude": null,
			"longitude": null,
			"created": "2017-06-26T18:06:20Z",
			"updated": "2017-06-26T18:16:17Z",
			"status": "ok"
		},
		{
			"id": 17414,
			"name": "ComuNET Internet Banda Larga Ltda.",
			"aka": "",
			"name_long": "",
			"website": "http://www.comunet.com.br",
			"notes": "",
			"address1": "Av. Presidente Getúlio Vargas, 5954",
			"address2": "Bairro Tijuca",
			"city": "Alvorada",
			"country": "BR",
			"state": "RS",
			"zipcode": "94836-000",
			"floor": "",
			"suite": "",
			"latitude": null,
			"longitude": null,
			"created": "2017-07-05T20:51:18Z",
			"updated": "2022-07-23T22:53:21Z",
			"status": "ok"
		},
		{
			"id": 17611,
			"name": "EVEN- TELECOM LTDA - ME",
			"aka": "",
			"name_long": "",
			"website": "http://www.eventelecom.com.br",
			"notes": "",
			"address1": "Avenida Frederico Augusto Ritter 5255",
			"address2": "",
			"city": "Cachoeirinha",
			"country": "BR",
			"state": "RS",
			"zipcode": "94931800",
			"floor": "",
			"suite": "",
			"latitude": -29.906897,
			"longitude": -51.094437,
			"created": "2017-07-28T17:54:18Z",
			"updated": "2022-10-07T06:51:44Z",
			"status": "ok"
		},
		{
			"id": 17856,
			"name": "LoopHOST",
			"aka": "",
			"name_long": "",
			"website": "https://www.loophost.com.br",
			"notes": "",
			"address1": "Av Sebastiao Amoretti, 2567",
			"address2": "2nd floor",
			"city": "Taquara",
			"country": "BR",
			"state": "RS",
			"zipcode": "95600-112",
			"floor": "",
			"suite": "",
			"latitude": null,
			"longitude": null,
			"created": "2017-08-23T14:34:21Z",
			"updated": "2019-11-24T23:44:20Z",
			"status": "ok"
		},
		{
			"id": 17937,
			"name": "WordNet Internet Banda Larga",
			"aka": "",
			"name_long": "",
			"website": "",
			"notes": "",
			"address1": "",
			"address2": "",
			"city": "Pelotas",
			"country": "BR",
			"state": "RS",
			"zipcode": "96081150",
			"floor": "",
			"suite": "",
			"latitude": null,
			"longitude": null,
			"created": "2017-09-02T18:16:51Z",
			"updated": "2018-01-18T00:14:59Z",
			"status": "ok"
		},
		{
			"id": 19219,
			"name": "Clickconnect",
			"aka": "",
			"name_long": "",
			"website": "http://www.clickconnect.inf.br",
			"notes": "",
			"address1": "Rua Ernesto Alves 2943",
			"address2": "",
			"city": "Taquara",
			"country": "BR",
			"state": "RS",
			"zipcode": "95612-000",
			"floor": "",
			"suite": "",
			"latitude": null,
			"longitude": null,
			"created": "2018-02-23T13:02:19Z",
			"updated": "2019-12-01T02:05:16Z",
			"status": "ok"
		},
		{
			"id": 19423,
			"name": "VOA TELECOMUNICACOES EIRELI - EPP",
			"aka": "",
			"name_long": "",
			"website": "http://voatelecom.com.br/",
			"notes": "",
			"address1": "Rua Arthur Leopoldo Ritter 400",
			"address2": "",
			"city": "Estância Velha",
			"country": "BR",
			"state": "RS",
			"zipcode": "93600-000",
			"floor": "",
			"suite": "",
			"latitude": null,
			"longitude": null,
			"created": "2018-03-20T17:19:54Z",
			"updated": "2018-04-03T13:31:45Z",
			"status": "ok"
		},
		{
			"id": 19840,
			"name": "Pannet Serviços On Line Ltda",
			"aka": "",
			"name_long": "",
			"website": "http://www.pannet.com.br",
			"notes": "",
			"address1": "Rua Julio de Castilhos",
			"address2": "1170",
			"city": "Encantado",
			"country": "BR",
			"state": "RS",
			"zipcode": "95960-000",
			"floor": "",
			"suite": "",
			"latitude": null,
			"longitude": null,
			"created": "2018-05-04T12:54:09Z",
			"updated": "2018-05-04T14:15:28Z",
			"status": "ok"
		},
		{
			"id": 20011,
			"name": "Confederação Int. das Coop. Ligadas ao SICREDI",
			"aka": "",
			"name_long": "",
			"website": "https://www.sicredi.com.br/",
			"notes": "",
			"address1": "Av. Assis Brasil, 3940",
			"address2": "",
			"city": "Porto Alegre",
			"country": "BR",
			"state": "RS",
			"zipcode": "91010003",
			"floor": "",
			"suite": "",
			"latitude": null,
			"longitude": null,
			"created": "2018-05-22T17:15:24Z",
			"updated": "2018-05-24T13:24:52Z",
			"status": "ok"
		},
		{
			"id": 20179,
			"name": "ZAP TCHE PROVEDOR DE INTERNET LTDA",
			"aka": "",
			"name_long": "",
			"website": "http://www.zaptche.com.br",
			"notes": "",
			"address1": "Rua Coronel José Otávio, 130 Dir Sala 01",
			"address2": "",
			"city": "Bagé",
			"country": "BR",
			"state": "RS",
			"zipcode": "96400-420",
			"floor": "",
			"suite": "",
			"latitude": null,
			"longitude": null,
			"created": "2018-06-09T03:38:20Z",
			"updated": "2018-06-11T14:38:35Z",
			"status": "ok"
		},
		{
			"id": 20329,
			"name": "InfoMaxx Telecom",
			"aka": "InfoMaxx",
			"name_long": "InfoMaxx Net",
			"website": "http://www.infomaxx.net.br",
			"notes": "",
			"address1": "R. Wilibado da Costa, 95",
			"address2": "",
			"city": "Capitão",
			"country": "BR",
			"state": "RS",
			"zipcode": "95935-000",
			"floor": "",
			"suite": "",
			"latitude": null,
			"longitude": null,
			"created": "2018-06-27T00:16:08Z",
			"updated": "2022-07-13T18:30:54Z",
			"status": "ok"
		},
		{
			"id": 20365,
			"name": "Ativar Telecom",
			"aka": "Ativar Telecom",
			"name_long": "Ativar Telecom",
			"website": "https://www.ativartelecom.com.br/",
			"notes": "",
			"address1": "Rua Monte Castelo, 1659",
			"address2": "São Luiz",
			"city": "Sapiranga",
			"country": "BR",
			"state": "RS",
			"zipcode": "93806-328",
			"floor": "",
			"suite": "",
			"latitude": -29.65123,
			"longitude": -50.997452,
			"created": "2018-06-30T20:01:35Z",
			"updated": "2021-06-25T11:50:46Z",
			"status": "ok"
		},
		{
			"id": 20432,
			"name": "A.M.W Tecnologia ME",
			"aka": "",
			"name_long": "",
			"website": "http://www.amw.net.br",
			"notes": "",
			"address1": "Rua José Luiz de Freitas",
			"address2": "332/101",
			"city": "Torres",
			"country": "BR",
			"state": "RS",
			"zipcode": "95560-000",
			"floor": "",
			"suite": "",
			"latitude": null,
			"longitude": null,
			"created": "2018-07-10T02:23:44Z",
			"updated": "2019-04-09T20:29:46Z",
			"status": "ok"
		},
		{
			"id": 20836,
			"name": "FUNDACAO DE APOIO DA UNIVERSIDADE FEDERAL DO",
			"aka": "",
			"name_long": "",
			"website": "http://www.pop-rs.rnp.br",
			"notes": "",
			"address1": "Rua Ramiro Barcelos, 2574",
			"address2": "",
			"city": "Porto Alegre",
			"country": "BR",
			"state": "RS",
			"zipcode": "90035003",
			"floor": "",
			"suite": "",
			"latitude": null,
			"longitude": null,
			"created": "2018-09-04T21:48:50Z",
			"updated": "2018-09-05T00:19:57Z",
			"status": "ok"
		},
		{
			"id": 21261,
			"name": "Gigaweb Tecnologia",
			"aka": "",
			"name_long": "",
			"website": "http://gigawebtecnologia.com.br",
			"notes": "",
			"address1": "Rua Luiz Gonzaga da gama 70",
			"address2": "",
			"city": "Novo Hamburgo",
			"country": "BR",
			"state": "RS",
			"zipcode": "93540410",
			"floor": "",
			"suite": "",
			"latitude": null,
			"longitude": null,
			"created": "2018-10-24T19:36:47Z",
			"updated": "2018-10-24T19:39:48Z",
			"status": "ok"
		},
		{
			"id": 21646,
			"name": "schossler e silva ltda - me",
			"aka": "",
			"name_long": "",
			"website": "http://cyberwebatjp.net.br/",
			"notes": "+555137816940",
			"address1": "Avenida Juventino Machado, 716",
			"address2": "Boa Vista",
			"city": "Sapucaia do Sul",
			"country": "BR",
			"state": "RS",
			"zipcode": "93230-620",
			"floor": "",
			"suite": "",
			"latitude": -29.845172,
			"longitude": -51.111976,
			"created": "2018-12-10T11:49:16Z",
			"updated": "2022-10-16T20:55:55Z",
			"status": "ok"
		},
		{
			"id": 21751,
			"name": "GIGA NET INFORMATICA LTDA ME",
			"aka": "",
			"name_long": "",
			"website": "http://www.gigars.com.br",
			"notes": "",
			"address1": "AV JOAO CORREA 1365",
			"address2": "",
			"city": "SAPIRANGA",
			"country": "BR",
			"state": "RS",
			"zipcode": "93800-026",
			"floor": "",
			"suite": "",
			"latitude": null,
			"longitude": null,
			"created": "2018-12-22T13:27:27Z",
			"updated": "2019-04-02T04:18:18Z",
			"status": "ok"
		},
		{
			"id": 22454,
			"name": "TRAUDI INES SEHNEM",
			"aka": "Infoserv Net",
			"name_long": "Infoserv NET Provedor de Acesso à Internet",
			"website": "http://www.infoservnet.net.br/",
			"notes": "",
			"address1": "Rua Pedro Souza, 295",
			"address2": "Vera Cruz - RS",
			"city": "Vera Cruz",
			"country": "BR",
			"state": "RS",
			"zipcode": "96880-000",
			"floor": "",
			"suite": "",
			"latitude": -29.715946,
			"longitude": -52.521279,
			"created": "2019-03-25T13:42:44Z",
			"updated": "2021-10-04T14:27:43Z",
			"status": "ok"
		},
		{
			"id": 22477,
			"name": "FG INTERLIGA LTDA",
			"aka": "",
			"name_long": "",
			"website": "http://fginformaticatupan.com.br/",
			"notes": "",
			"address1": "Rua Duque de Caxias",
			"address2": "",
			"city": "Tupanciretã",
			"country": "BR",
			"state": "RS",
			"zipcode": "98170-000",
			"floor": "",
			"suite": "",
			"latitude": null,
			"longitude": null,
			"created": "2019-03-27T14:16:14Z",
			"updated": "2019-04-01T20:52:35Z",
			"status": "ok"
		},
		{
			"id": 22703,
			"name": "IBV Telecom Ltda",
			"aka": "",
			"name_long": "",
			"website": "http://www.ibvtelecom.com.br",
			"notes": "",
			"address1": "Rua Simão Barbosa, 455, Centro",
			"address2": "",
			"city": "Amaral Ferrador",
			"country": "BR",
			"state": "RS",
			"zipcode": "96635000",
			"floor": "",
			"suite": "",
			"latitude": null,
			"longitude": null,
			"created": "2019-04-28T21:29:54Z",
			"updated": "2019-04-28T21:36:44Z",
			"status": "ok"
		},
		{
			"id": 22788,
			"name": "Prívate Internet",
			"aka": "",
			"name_long": "",
			"website": "http://www.privateinternet.com.br",
			"notes": "",
			"address1": "Rua Santa Maria, 1098",
			"address2": "Rua Balbino de Freitas, 247",
			"city": "Torres",
			"country": "BR",
			"state": "RS",
			"zipcode": "95560000",
			"floor": "",
			"suite": "",
			"latitude": null,
			"longitude": null,
			"created": "2019-05-08T01:10:34Z",
			"updated": "2019-05-10T15:57:07Z",
			"status": "ok"
		},
		{
			"id": 22900,
			"name": "Cassiano Zanon - CZNET Provedor de Internet",
			"aka": "",
			"name_long": "",
			"website": "http://www.cznet.net.br",
			"notes": "",
			"address1": "Av. do Comércio, 752, Sala 03",
			"address2": "",
			"city": "Rodeio Bonito",
			"country": "BR",
			"state": "RS",
			"zipcode": "98360-000",
			"floor": "",
			"suite": "",
			"latitude": null,
			"longitude": null,
			"created": "2019-05-21T17:42:33Z",
			"updated": "2019-05-21T17:46:10Z",
			"status": "ok"
		},
		{
			"id": 22915,
			"name": "ELETRICNET TELECOMUNICAÇÕES LTDA",
			"aka": "",
			"name_long": "",
			"website": "http://www.eletricnet.net.br",
			"notes": "",
			"address1": "RUA ANGELO PASQUALI, 18, SALA 5",
			"address2": "",
			"city": "Rodeio Bonito",
			"country": "BR",
			"state": "RS",
			"zipcode": "98360-000",
			"floor": "",
			"suite": "",
			"latitude": null,
			"longitude": null,
			"created": "2019-05-22T20:21:55Z",
			"updated": "2019-05-22T20:23:47Z",
			"status": "ok"
		},
		{
			"id": 23042,
			"name": "TM TECNOLOGIA DA COMUNICAÇÃO LTDA",
			"aka": "",
			"name_long": "MONDAX INTERNET LTDA",
			"website": "https://mondax.com.br/",
			"notes": "",
			"address1": "Rua Francklim Magalhães, 165",
			"address2": "Arroio Grande - RS",
			"city": "Arroio Grande",
			"country": "BR",
			"state": "RS",
			"zipcode": "96330-000",
			"floor": "",
			"suite": "",
			"latitude": -32.239262,
			"longitude": -53.080916,
			"created": "2019-06-06T17:13:41Z",
			"updated": "2021-08-12T13:15:07Z",
			"status": "ok"
		},
		{
			"id": 23225,
			"name": "VEM PRA UNO PROVEDOR DE INTERNET LTDA",
			"aka": "Vem pra Uno - Provedor de Internet",
			"name_long": "VEM PRA UNO PROVEDOR DE INTERNET LTDA",
			"website": "https://vemprauno.com.br/",
			"notes": "",
			"address1": "Monteiro Lobato, 837",
			"address2": "Parque da Matriz",
			"city": "Cachoeirinha",
			"country": "BR",
			"state": "RS",
			"zipcode": "94950-280",
			"floor": "",
			"suite": "",
			"latitude": -29.946004,
			"longitude": -51.078436,
			"created": "2019-06-27T19:13:45Z",
			"updated": "2022-09-19T16:29:48Z",
			"status": "ok"
		},
		{
			"id": 23619,
			"name": "YOTTA COMUNICACOES DIGITAIS LTDA - EPP",
			"aka": "",
			"name_long": "",
			"website": "https://www.yotta.psi.br/",
			"notes": "",
			"address1": "rua arminio da silva, 1435, sala 4, edifício jardim do sol",
			"address2": "",
			"city": "sarandi",
			"country": "BR",
			"state": "RS",
			"zipcode": "99560000",
			"floor": "",
			"suite": "",
			"latitude": null,
			"longitude": null,
			"created": "2019-08-19T12:16:59Z",
			"updated": "2019-08-19T13:11:28Z",
			"status": "ok"
		},
		{
			"id": 23623,
			"name": "Luiza Maria de Souza Sindelar ME",
			"aka": "",
			"name_long": "",
			"website": "http://www.viuinternet.com.br/",
			"notes": "",
			"address1": "Av Paraguassú, 3201 loja 2",
			"address2": "",
			"city": "Capao da Canoa",
			"country": "BR",
			"state": "RS",
			"zipcode": "95555000",
			"floor": "",
			"suite": "",
			"latitude": null,
			"longitude": null,
			"created": "2019-08-19T19:47:13Z",
			"updated": "2021-09-27T14:22:55Z",
			"status": "ok"
		},
		{
			"id": 23727,
			"name": "Oria Eliza Hugo Carrasco-ME",
			"aka": "Evolution Internet",
			"name_long": "",
			"website": "https://www.evolutioninternet.com.br/",
			"notes": "",
			"address1": "R. Cidade de Rio Grande, 76 - Jardim América",
			"address2": "",
			"city": "Capão do Leão",
			"country": "BR",
			"state": "RS",
			"zipcode": "96160-000",
			"floor": "",
			"suite": "",
			"latitude": -31.761615,
			"longitude": -52.434257,
			"created": "2019-08-31T01:49:36Z",
			"updated": "2022-10-14T00:05:15Z",
			"status": "ok"
		},
		{
			"id": 24134,
			"name": "NATVERK TECNOLOGIA LTDA",
			"aka": "",
			"name_long": "",
			"website": "http://www.natverk.com.br",
			"notes": "",
			"address1": "Rua Professor Freitas e Castro, 481 Sala 307",
			"address2": "Azenha",
			"city": "Porto Alegre",
			"country": "BR",
			"state": "RS",
			"zipcode": "90040401",
			"floor": "",
			"suite": "",
			"latitude": null,
			"longitude": null,
			"created": "2019-10-18T15:07:43Z",
			"updated": "2019-10-18T15:09:54Z",
			"status": "ok"
		},
		{
			"id": 24166,
			"name": "INFOMAC TELECOMUNICAÇÕES LTDA",
			"aka": "",
			"name_long": "",
			"website": "http://www.infomac.com.br",
			"notes": "",
			"address1": "Rua Zeferino Scussiato, 127",
			"address2": "Desvio Rizzo",
			"city": "Caxias do Sul",
			"country": "BR",
			"state": "RS",
			"zipcode": "95110-790",
			"floor": "",
			"suite": "",
			"latitude": null,
			"longitude": null,
			"created": "2019-10-23T13:00:18Z",
			"updated": "2020-09-17T16:07:32Z",
			"status": "ok"
		},
		{
			"id": 24735,
			"name": "Digiplan Comercio De Equipamentos de Informatica L",
			"aka": "",
			"name_long": "",
			"website": "http://digiplannet.com.br/",
			"notes": "",
			"address1": "Rua Barão do Rio Branco, 397, Sala 01",
			"address2": "",
			"city": "Alpestre",
			"country": "BR",
			"state": "RS",
			"zipcode": "98480-000",
			"floor": "",
			"suite": "",
			"latitude": null,
			"longitude": null,
			"created": "2019-12-18T23:03:56Z",
			"updated": "2019-12-18T23:11:59Z",
			"status": "ok"
		},
		{
			"id": 25113,
			"name": "INFOCERTO",
			"aka": "",
			"name_long": "",
			"website": "http://www.infocerto.com.br",
			"notes": "",
			"address1": "Rua Coronel Pacheco, 350 Loja 10 Centro",
			"address2": "",
			"city": "Torres",
			"country": "BR",
			"state": "RS",
			"zipcode": "95560-000",
			"floor": "",
			"suite": "",
			"latitude": null,
			"longitude": null,
			"created": "2020-02-06T21:45:46Z",
			"updated": "2020-02-18T20:01:05Z",
			"status": "ok"
		},
		{
			"id": 25321,
			"name": "ZetaNET Telecom",
			"aka": "",
			"name_long": "",
			"website": "http://www.zetanet.com.br",
			"notes": "",
			"address1": "Rua Erni Oscar Fauth, 391 - Sala 100 - Centro",
			"address2": "",
			"city": "Brochier",
			"country": "BR",
			"state": "RS",
			"zipcode": "95790-000",
			"floor": "",
			"suite": "",
			"latitude": null,
			"longitude": null,
			"created": "2020-02-28T12:31:42Z",
			"updated": "2020-02-28T17:50:10Z",
			"status": "ok"
		},
		{
			"id": 25368,
			"name": "RK Telecom Provedor Internet LTDA",
			"aka": "",
			"name_long": "",
			"website": "http://www.gruporktelecom.com.br",
			"notes": "",
			"address1": "Av. XV de Novembro, 680, 3º piso, sala 318",
			"address2": "",
			"city": "Passo Fundo",
			"country": "BR",
			"state": "RS",
			"zipcode": "99.010-120",
			"floor": "",
			"suite": "",
			"latitude": null,
			"longitude": null,
			"created": "2020-03-03T13:17:29Z",
			"updated": "2020-03-03T13:19:08Z",
			"status": "ok"
		},
		{
			"id": 25412,
			"name": "Tec System Sistemas Eletronicos LTDA",
			"aka": "",
			"name_long": "",
			"website": "http://www.tscom.com.br",
			"notes": "",
			"address1": "Rua Carlos Alfredo Berlitz, 191",
			"address2": "",
			"city": "Sapiranga",
			"country": "BR",
			"state": "RS",
			"zipcode": "93800-104",
			"floor": "",
			"suite": "",
			"latitude": null,
			"longitude": null,
			"created": "2020-03-06T17:14:06Z",
			"updated": "2020-03-06T18:36:16Z",
			"status": "ok"
		},
		{
			"id": 25572,
			"name": "Trion Tel d.o.o.",
			"aka": "",
			"name_long": "",
			"website": "http://www.triontel.net",
			"notes": "",
			"address1": "Vidovdanska 8",
			"address2": "",
			"city": "Banja Luka",
			"country": "BA",
			"state": "RS",
			"zipcode": "78000",
			"floor": "",
			"suite": "",
			"latitude": null,
			"longitude": null,
			"created": "2020-03-25T09:28:01Z",
			"updated": "2020-03-28T16:49:40Z",
			"status": "ok"
		},
		{
			"id": 25596,
			"name": "Stefenon e Rasche Serviços de Telecom LTDA",
			"aka": "",
			"name_long": "",
			"website": "http://srnet.net.br/",
			"notes": "",
			"address1": "Rua Bento Gonçalves, 450 - sala 204",
			"address2": "",
			"city": "Lajeado",
			"country": "BR",
			"state": "RS",
			"zipcode": "95900000",
			"floor": "",
			"suite": "",
			"latitude": null,
			"longitude": null,
			"created": "2020-03-27T11:39:09Z",
			"updated": "2020-03-27T16:21:01Z",
			"status": "ok"
		},
		{
			"id": 25686,
			"name": "Digitotal Networks Telecomunicações ltda",
			"aka": "Digitotal",
			"name_long": "",
			"website": "http://www.digitotal.com.br",
			"notes": "",
			"address1": "Avenida Jose Bonifacio, 795",
			"address2": "Torres - RS",
			"city": "Torres",
			"country": "BR",
			"state": "RS",
			"zipcode": "95560-000",
			"floor": "",
			"suite": "",
			"latitude": -29.341747,
			"longitude": -49.735623,
			"created": "2020-04-03T19:06:11Z",
			"updated": "2022-08-03T14:53:45Z",
			"status": "ok"
		},
		{
			"id": 25800,
			"name": "Avanti Soluções em Telecom LTDA",
			"aka": "Avanti Telecom",
			"name_long": "",
			"website": "https://avanti.tec.br",
			"notes": "",
			"address1": "Rua Vicente Dal Bó, 478",
			"address2": "Sala 04",
			"city": "Garibaldi",
			"country": "",
			"state": "RS",
			"zipcode": "95720000",
			"floor": "",
			"suite": "",
			"latitude": -29.260404,
			"longitude": -51.523509,
			"created": "2020-04-16T14:47:56Z",
			"updated": "2021-12-14T17:06:38Z",
			"status": "ok"
		},
		{
			"id": 26729,
			"name": "ALLTEC INTERNET",
			"aka": "",
			"name_long": "",
			"website": "http://www.alltecinternet.com.br",
			"notes": "",
			"address1": "Rua Veranópolis, 201",
			"address2": "",
			"city": "Pelotas",
			"country": "BR",
			"state": "RS",
			"zipcode": "96090-220",
			"floor": "",
			"suite": "",
			"latitude": null,
			"longitude": null,
			"created": "2020-07-17T14:07:33Z",
			"updated": "2020-07-17T14:10:02Z",
			"status": "ok"
		},
		{
			"id": 27199,
			"name": "LAN SOLUTIONS INFORMATICA LTDA",
			"aka": "",
			"name_long": "",
			"website": "http://www.interlans.com.br/",
			"notes": "",
			"address1": "Rua Peru, 1628 - Centro",
			"address2": "",
			"city": "Chuí",
			"country": "BR",
			"state": "RS",
			"zipcode": "96255-000",
			"floor": "",
			"suite": "",
			"latitude": null,
			"longitude": null,
			"created": "2020-09-02T13:06:37Z",
			"updated": "2020-09-02T14:14:38Z",
			"status": "ok"
		},
		{
			"id": 27371,
			"name": "Edson Biondo & Cia Ltda.",
			"aka": "",
			"name_long": "",
			"website": "",
			"notes": "",
			"address1": "Rua Salvador Dantas, 509",
			"address2": "Vespasiano Correa - RS",
			"city": "Vespasiano Correa",
			"country": "BR",
			"state": "RS",
			"zipcode": "95972-000",
			"floor": "",
			"suite": "",
			"latitude": -29.066518,
			"longitude": -51.863288,
			"created": "2020-09-21T00:54:06Z",
			"updated": "2021-12-21T18:50:31Z",
			"status": "ok"
		},
		{
			"id": 27377,
			"name": "CDNTV TECNOLOGIA LTDA",
			"aka": "CDNTV",
			"name_long": "CDNTV TECNOLOGIA LTDA",
			"website": "http://cdn.tv.br",
			"notes": "",
			"address1": "Av. Ipiranga, 607 - conjunto 403 - Praia de Belas",
			"address2": "",
			"city": "Porto Alegre",
			"country": "BR",
			"state": "RS",
			"zipcode": "90160-092",
			"floor": "",
			"suite": "",
			"latitude": null,
			"longitude": null,
			"created": "2020-09-21T19:46:06Z",
			"updated": "2022-03-03T16:22:09Z",
			"status": "ok"
		},
		{
			"id": 27388,
			"name": "ZEEP TELECOM",
			"aka": "",
			"name_long": "",
			"website": "https://zeep.net.br",
			"notes": "",
			"address1": "Rua dos Andradas",
			"address2": "",
			"city": "Porto Alegre",
			"country": "BR",
			"state": "RS",
			"zipcode": "90020005",
			"floor": "",
			"suite": "",
			"latitude": null,
			"longitude": null,
			"created": "2020-09-22T16:11:19Z",
			"updated": "2021-10-18T13:13:19Z",
			"status": "ok"
		},
		{
			"id": 27500,
			"name": "CONECTAI INTERNET",
			"aka": "",
			"name_long": "",
			"website": "https://www.conectai.net.br/",
			"notes": "",
			"address1": "Avenida Heraclides de Lima Gomes, 2401 - Centro",
			"address2": "",
			"city": "Boa Vista do Incra",
			"country": "BR",
			"state": "RS",
			"zipcode": "98.120-000",
			"floor": "",
			"suite": "",
			"latitude": null,
			"longitude": null,
			"created": "2020-10-03T15:14:26Z",
			"updated": "2020-10-05T18:08:03Z",
			"status": "ok"
		},
		{
			"id": 27617,
			"name": "BRNet Telecom. Inc.",
			"aka": "BRNET",
			"name_long": "BRNet Telecomunicações LTDA.",
			"website": "http://www.brnet.com.br",
			"notes": "",
			"address1": "Senador Pinheiro Machado, 1178 (Sala 7) - Centro",
			"address2": "",
			"city": "Bom Retiro do Sul",
			"country": "BR",
			"state": "RS",
			"zipcode": "95870000",
			"floor": "",
			"suite": "",
			"latitude": null,
			"longitude": null,
			"created": "2020-10-16T22:19:43Z",
			"updated": "2022-08-05T20:44:48Z",
			"status": "ok"
		},
		{
			"id": 27642,
			"name": "NEW LIFE TELECOM",
			"aka": "NEW LIFE TELECOM",
			"name_long": "NEW LIFE TELECOM",
			"website": "http://www.gruponewlife.com.br",
			"notes": "",
			"address1": "",
			"address2": "",
			"city": "São Leopoldo",
			"country": "BR",
			"state": "RS",
			"zipcode": "",
			"floor": "",
			"suite": "",
			"latitude": null,
			"longitude": null,
			"created": "2020-10-20T14:21:05Z",
			"updated": "2021-05-22T14:43:41Z",
			"status": "ok"
		},
		{
			"id": 27664,
			"name": "Netslim Provedor de Internet Eireli - ME",
			"aka": "",
			"name_long": "",
			"website": "http://www.netslim.com.br",
			"notes": "",
			"address1": "Rua Nelson Oliveira Lopes 184",
			"address2": "Vila Vista Alegre",
			"city": "Cachoeirinha",
			"country": "BR",
			"state": "RS",
			"zipcode": "94.945-430",
			"floor": "",
			"suite": "",
			"latitude": null,
			"longitude": null,
			"created": "2020-10-23T14:34:06Z",
			"updated": "2020-10-23T14:39:51Z",
			"status": "ok"
		},
		{
			"id": 29099,
			"name": "Farol Telecom",
			"aka": "",
			"name_long": "",
			"website": "http://www.faroltelecom.com.br",
			"notes": "",
			"address1": "",
			"address2": "",
			"city": "Pelotas",
			"country": "BR",
			"state": "RS",
			"zipcode": "",
			"floor": "",
			"suite": "",
			"latitude": null,
			"longitude": null,
			"created": "2021-04-06T01:41:35Z",
			"updated": "2021-04-06T01:42:50Z",
			"status": "ok"
		},
		{
			"id": 29421,
			"name": "ESSO FIBRA",
			"aka": "ESSO FIBRA",
			"name_long": "",
			"website": "http://www.essofibra.com.br",
			"notes": "",
			"address1": "Rua João Lourenço Schaeffer, 439",
			"address2": "Centro",
			"city": "Igrejinha",
			"country": "BR",
			"state": "RS",
			"zipcode": "95650-000",
			"floor": "",
			"suite": "",
			"latitude": -29.574462,
			"longitude": -50.789437,
			"created": "2021-05-06T14:53:14Z",
			"updated": "2021-12-08T13:06:47Z",
			"status": "ok"
		},
		{
			"id": 29773,
			"name": "Entelvias provedor de internet ltda",
			"aka": "victor",
			"name_long": "victor chisini",
			"website": "http://www.entelvias.com.br",
			"notes": "",
			"address1": "Rua Doutor Carlo Barbosa, 264 Sala 02",
			"address2": "Centro",
			"city": "Garibaldi",
			"country": "BR",
			"state": "RS",
			"zipcode": "95720-000",
			"floor": "",
			"suite": "",
			"latitude": -29.253628,
			"longitude": -51.533798,
			"created": "2021-06-16T18:50:24Z",
			"updated": "2021-06-16T20:46:06Z",
			"status": "ok"
		},
		{
			"id": 29845,
			"name": "Tamar Comercio e Equipamentos para Informática Ltd",
			"aka": "VIP+Telecom",
			"name_long": "Tamar Comércio de Equipamentos para Informática Ltda.",
			"website": "http://www.vipmaisinternet.com.br",
			"notes": "",
			"address1": "Rua Santana, 3038",
			"address2": "Centro",
			"city": "Uruguaiana",
			"country": "BR",
			"state": "RS",
			"zipcode": "97501-644",
			"floor": "",
			"suite": "",
			"latitude": -29.757113,
			"longitude": -57.082934,
			"created": "2021-06-26T11:28:17Z",
			"updated": "2021-06-28T12:18:31Z",
			"status": "ok"
		},
		{
			"id": 29938,
			"name": "KERKHOFEN & MORREIRA LTDA ME",
			"aka": "",
			"name_long": "KERKHOFEN & MORREIRA LTDA ME",
			"website": "http://www.gmtelecom.inf.br/",
			"notes": "",
			"address1": "Rua Dom Pedro I, 585",
			"address2": "Pinheirinho Do Vale - RS",
			"city": "Pinheirinho Do Vale",
			"country": "BR",
			"state": "RS",
			"zipcode": "98435-000",
			"floor": "",
			"suite": "",
			"latitude": -27.21043,
			"longitude": -53.616266,
			"created": "2021-07-08T11:41:37Z",
			"updated": "2021-07-08T11:44:51Z",
			"status": "ok"
		},
		{
			"id": 29968,
			"name": "Willynet Provedor",
			"aka": "Willynet Provedor",
			"name_long": "Willynet Provedor",
			"website": "http://www.willynet.com.br",
			"notes": "",
			"address1": "Rua Presidente Vargas",
			"address2": "",
			"city": "Pedro Osório",
			"country": "BR",
			"state": "RS",
			"zipcode": "96360-000",
			"floor": "",
			"suite": "191",
			"latitude": null,
			"longitude": null,
			"created": "2021-07-13T19:01:48Z",
			"updated": "2021-07-27T12:41:52Z",
			"status": "ok"
		},
		{
			"id": 30098,
			"name": "BR.Digital",
			"aka": "Commcorp",
			"name_long": "BR.Digital",
			"website": "https://br.digital",
			"notes": "",
			"address1": "Rua Comendador Azevedo, 140",
			"address2": "Floresta",
			"city": "Porto Alegre",
			"country": "BR",
			"state": "RS",
			"zipcode": "90220-150",
			"floor": "",
			"suite": "",
			"latitude": -30.019144,
			"longitude": -51.212366,
			"created": "2021-07-30T20:50:40Z",
			"updated": "2022-07-07T12:41:36Z",
			"status": "ok"
		},
		{
			"id": 30555,
			"name": "VOUS SOLUCOES INTELIGENTES LTDA",
			"aka": "Vous",
			"name_long": "Vous Solucoes Inteligentes Ltda",
			"website": "http://www.vous.com.br/",
			"notes": "",
			"address1": "Rua Lobo Da Costa, 54",
			"address2": "Azenha",
			"city": "Porto Alegre",
			"country": "BR",
			"state": "RS",
			"zipcode": "90050-110",
			"floor": "",
			"suite": "",
			"latitude": -30.04431,
			"longitude": -51.217983,
			"created": "2021-09-22T16:31:45Z",
			"updated": "2021-09-22T21:13:12Z",
			"status": "ok"
		},
		{
			"id": 30573,
			"name": "UNITEC PROVEDORA DE INTERNET E TELECOM LTDA",
			"aka": "Unitec",
			"name_long": "UNITEC PROVEDORA DE INTERNET E TELECOM LTDA",
			"website": "https://www.unitecfibra.com.br/",
			"notes": "",
			"address1": "",
			"address2": "",
			"city": "Porto Alegre",
			"country": "BR",
			"state": "RS",
			"zipcode": "",
			"floor": "",
			"suite": "",
			"latitude": null,
			"longitude": null,
			"created": "2021-09-23T23:53:53Z",
			"updated": "2021-09-23T23:56:54Z",
			"status": "ok"
		},
		{
			"id": 31113,
			"name": "VILCA NET LTDA",
			"aka": "VilcaNet",
			"name_long": "VILCA NET LTDA",
			"website": "https://vilca.net.br/",
			"notes": "",
			"address1": "Avenida Senador Teotônio Brandão Vilela, 1561",
			"address2": "Parque Granja Esperança",
			"city": "Cachoeirinha",
			"country": "BR",
			"state": "RS",
			"zipcode": "94960-570",
			"floor": "",
			"suite": "",
			"latitude": -29.912714,
			"longitude": -51.081212,
			"created": "2021-11-23T13:08:30Z",
			"updated": "2021-11-23T13:12:29Z",
			"status": "ok"
		},
		{
			"id": 31242,
			"name": "Connect LP - SERVICO DE COMUNICACAO MULTIMIDIA LTD",
			"aka": "Connect LP",
			"name_long": "Connect LP - SERVICO DE COMUNICACAO MULTIMIDIA LTD",
			"website": "http://lpconnect.com.br/",
			"notes": "",
			"address1": "Estrada João De Oliveira Remião, 1660",
			"address2": "Lomba Do Pinheiro",
			"city": "Porto Alegre",
			"country": "BR",
			"state": "RS",
			"zipcode": "91550-000",
			"floor": "",
			"suite": "",
			"latitude": -30.100883,
			"longitude": -51.125068,
			"created": "2021-12-10T14:20:01Z",
			"updated": "2021-12-10T14:28:45Z",
			"status": "ok"
		},
		{
			"id": 31259,
			"name": "Super Giga Net Ltda",
			"aka": "",
			"name_long": "SUPER GIGA NET LTDA",
			"website": "",
			"notes": "",
			"address1": "",
			"address2": "",
			"city": "BRASIL",
			"country": "",
			"state": "RS",
			"zipcode": "",
			"floor": "",
			"suite": "",
			"latitude": null,
			"longitude": null,
			"created": "2021-12-13T18:19:37Z",
			"updated": "2021-12-13T18:21:49Z",
			"status": "ok"
		},
		{
			"id": 31271,
			"name": "DATACUBONET ASSIST TEC EM INFORMATICA LTDA",
			"aka": "",
			"name_long": "",
			"website": "https://datacubo.net",
			"notes": "",
			"address1": "Rua Ângelo Barcelos, 515",
			"address2": "Vila João Pessoa",
			"city": "Porto Alegre",
			"country": "BR",
			"state": "RS",
			"zipcode": "91520-020",
			"floor": "",
			"suite": "",
			"latitude": -30.066333,
			"longitude": -51.174115,
			"created": "2021-12-14T21:34:11Z",
			"updated": "2021-12-15T10:34:57Z",
			"status": "ok"
		},
		{
			"id": 31383,
			"name": "Log-Fi Internet",
			"aka": "Log-Fi",
			"name_long": "Vórtice Serviços de Telecomunicações Ltda",
			"website": "http://www.logfi.net.br",
			"notes": "",
			"address1": "Avenida Doutor Alberto Vianna Rosa, 184/202",
			"address2": "Alto Petropolis",
			"city": "Porto Alegre",
			"country": "BR",
			"state": "RS",
			"zipcode": "91450-210",
			"floor": "2",
			"suite": "",
			"latitude": -30.041024,
			"longitude": -51.123923,
			"created": "2021-12-28T20:03:29Z",
			"updated": "2021-12-30T13:40:10Z",
			"status": "ok"
		},
		{
			"id": 31411,
			"name": "RGSul Internet Eireli",
			"aka": "RGSul",
			"name_long": "RGSul Internet Eireli",
			"website": "http://rgsul.net.br",
			"notes": "",
			"address1": "Avenida Duque De Caxias, 1011",
			"address2": "Fragata",
			"city": "Pelotas",
			"country": "BR",
			"state": "RS",
			"zipcode": "96030-003",
			"floor": "",
			"suite": "",
			"latitude": -31.756554,
			"longitude": -52.385979,
			"created": "2022-01-03T11:54:50Z",
			"updated": "2022-01-03T17:53:26Z",
			"status": "ok"
		},
		{
			"id": 31644,
			"name": "M & R NETWORK LTDA - ME",
			"aka": "NetParque",
			"name_long": "M & R NETWORK LTDA - ME",
			"website": "http://www.netparque.com.br/",
			"notes": "",
			"address1": "Rua Bauru, 456",
			"address2": "Parque da Matriz",
			"city": "Cachoeirinha",
			"country": "BR",
			"state": "RS",
			"zipcode": "94950-510",
			"floor": "",
			"suite": "",
			"latitude": -29.950839,
			"longitude": -51.076835,
			"created": "2022-02-01T19:36:47Z",
			"updated": "2022-02-02T11:02:31Z",
			"status": "ok"
		},
		{
			"id": 31905,
			"name": "CONECTSUL SOLUCOES EM INTERNET",
			"aka": "Conectsul",
			"name_long": "CONECTSUL SOLUCOES EM INTERNET",
			"website": "https://conectsul.com.br/",
			"notes": "",
			"address1": "Rua Alcides Alfonsin, 360",
			"address2": "",
			"city": "Tapes",
			"country": "BR",
			"state": "RS",
			"zipcode": "96760-000",
			"floor": "Sala 1",
			"suite": "",
			"latitude": -30.671967,
			"longitude": -51.402214,
			"created": "2022-03-08T18:05:59Z",
			"updated": "2022-03-10T13:59:50Z",
			"status": "ok"
		},
		{
			"id": 32656,
			"name": "Sociedade Beneficiência de Lajeado",
			"aka": "",
			"name_long": "",
			"website": "https://hbb.com.br",
			"notes": "",
			"address1": "Avenida Benjamin Constant, 881",
			"address2": "Centro",
			"city": "Lajeado",
			"country": "BR",
			"state": "RS",
			"zipcode": "95900-010",
			"floor": "",
			"suite": "",
			"latitude": -29.463228,
			"longitude": -51.966558,
			"created": "2022-06-22T00:57:06Z",
			"updated": "2022-07-21T20:09:15Z",
			"status": "ok"
		},
		{
			"id": 32678,
			"name": "NextHop Solutions ®",
			"aka": "NextHop Solutions ®",
			"name_long": "NextHop Solutions Consultoria em TI Eireli",
			"website": "https://nexthop.solutions",
			"notes": "",
			"address1": "Unique Business Center",
			"address2": "Av. Centenário, 585",
			"city": "Gravataí",
			"country": "BR",
			"state": "RS",
			"zipcode": "94035-240",
			"floor": "Torre 2",
			"suite": "Sala 707",
			"latitude": -29.949566,
			"longitude": -50.994472,
			"created": "2022-06-23T16:39:20Z",
			"updated": "2022-10-28T04:19:34Z",
			"status": "ok"
		},
		{
			"id": 32713,
			"name": "VRM Telecom",
			"aka": "Vagner Roman Moreira",
			"name_long": "Vagner Roman Moreira ME",
			"website": "http://vrmtelecom.comb.br",
			"notes": "",
			"address1": "Rua Eurico Sales, 840",
			"address2": "Menino Deus",
			"city": "Bagé",
			"country": "BR",
			"state": "RS",
			"zipcode": "96400-660",
			"floor": "",
			"suite": "",
			"latitude": -31.333709,
			"longitude": -54.116272,
			"created": "2022-06-28T18:07:34Z",
			"updated": "2022-06-28T18:38:45Z",
			"status": "ok"
		},
		{
			"id": 33250,
			"name": "COMBI CONECTA TELECOM LTDA",
			"aka": "COMBI CONECTA",
			"name_long": "COMBI CONECTA TELECOM LTDA",
			"website": "https://www.combiconecta.com.br",
			"notes": "",
			"address1": "Avenida Adolfo Fetter, 3551",
			"address2": "",
			"city": "Pelotas",
			"country": "BR",
			"state": "RS",
			"zipcode": "96090-840",
			"floor": "",
			"suite": "",
			"latitude": -31.757378,
			"longitude": -52.249146,
			"created": "2022-09-05T18:45:03Z",
			"updated": "2022-09-06T14:33:52Z",
			"status": "ok"
		},
		{
			"id": 33304,
			"name": "Viacom Provedor de Internet",
			"aka": "Viacom",
			"name_long": "Viacom Provedor de Internet",
			"website": "https://www.viacom.com.br/",
			"notes": "",
			"address1": "Rua Venancio Aires, 2192",
			"address2": "",
			"city": "São Luiz Gonzaga",
			"country": "BR",
			"state": "RS",
			"zipcode": "97800-000",
			"floor": "",
			"suite": "",
			"latitude": -28.408019,
			"longitude": -54.96269,
			"created": "2022-09-13T12:37:21Z",
			"updated": "2022-09-13T13:40:44Z",
			"status": "ok"
		},
		{
			"id": 33632,
			"name": "Justica Federal de Primeiro Grau no RS",
			"aka": "JFRS",
			"name_long": "Justica Federal de Primeiro Grau no Rio Grande do Sul",
			"website": "https://www.jfrs.jus.br",
			"notes": "",
			"address1": "Rua Otávio Francisco Caruso da Rocha, 600",
			"address2": "Praia de Belas",
			"city": "Porto Alegre",
			"country": "BR",
			"state": "RS",
			"zipcode": "90010-395",
			"floor": "",
			"suite": "",
			"latitude": -30.039603,
			"longitude": -51.235615,
			"created": "2022-10-24T19:55:02Z",
			"updated": "2022-10-24T19:58:28Z",
			"status": "ok"
		},
		{
			"id": 33676,
			"name": "VIA NET PROVEDOR DE ACESSO LTDA-ME",
			"aka": "vianet_wi-fi",
			"name_long": "vianet_wi-fi",
			"website": "http://www.vianet-rs.com",
			"notes": "",
			"address1": "Rua Guiné, 76",
			"address2": "Martinica",
			"city": "Viamão",
			"country": "BR",
			"state": "RS",
			"zipcode": "94460-450",
			"floor": "",
			"suite": "",
			"latitude": -30.102065,
			"longitude": -51.069614,
			"created": "2022-10-29T02:08:20Z",
			"updated": "2022-10-29T12:24:08Z",
			"status": "ok"
		}
	],
	"meta": {}
}