{
	"data": [
		{
			"id": 1446,
			"name": "Ponto de Presença da Rede Nacional de Ensino e Pesquisa no Estado do Paraná",
			"aka": "",
			"name_long": "",
			"website": "https://www.pop-pr.rnp.br",
			"notes": "",
			"address1": "UFPR - AGTIC",
			"address2": "Av. Cel. Fco H dos Santos, 100",
			"city": "Curitiba",
			"country": "BR",
			"state": "PR",
			"zipcode": "81531-980",
			"floor": "",
			"suite": "",
			"latitude": null,
			"longitude": null,
			"created": "2007-09-03T18:14:45Z",
			"updated": "2021-10-01T18:02:57Z",
			"status": "ok"
		},
		{
			"id": 3373,
			"name": "Puerto Rico Internet Exchange",
			"aka": "",
			"name_long": "",
			"website": "http://www.puertoricoix.net",
			"notes": "",
			"address1": "",
			"address2": "",
			"city": "San Juan",
			"country": "PR",
			"state": "PR",
			"zipcode": "00987",
			"floor": "",
			"suite": "",
			"latitude": null,
			"longitude": null,
			"created": "2011-01-11T10:14:46Z",
			"updated": "2019-11-16T16:12:43Z",
			"status": "ok"
		},
		{
			"id": 4022,
			"name": "Critical Hub Networks, Inc.",
			"aka": "",
			"name_long": "",
			"website": "http://www.criticalhub.com",
			"notes": "",
			"address1": "PO Box 11278",
			"address2": "",
			"city": "San Juan",
			"country": "PR",
			"state": "PR",
			"zipcode": "00910",
			"floor": "",
			"suite": "",
			"latitude": null,
			"longitude": null,
			"created": "2011-05-05T00:00:00Z",
			"updated": "2019-01-21T21:33:21Z",
			"status": "ok"
		},
		{
			"id": 4964,
			"name": "Universidade Estadual de Ponta Grossa",
			"aka": "UEPG",
			"name_long": "",
			"website": "https://www.uepg.br",
			"notes": "",
			"address1": "Avenida General Carlos Cavalcanti, 4748",
			"address2": "Uvaranas",
			"city": "Ponta Grossa",
			"country": "BR",
			"state": "PR",
			"zipcode": "84030-900",
			"floor": "",
			"suite": "",
			"latitude": -25.091517,
			"longitude": -50.115019,
			"created": "2011-10-17T10:21:51Z",
			"updated": "2021-11-06T16:17:03Z",
			"status": "ok"
		},
		{
			"id": 8050,
			"name": "LIGGA TELECOMUNICACOES S.A.",
			"aka": "LIGGA TELECOM",
			"name_long": "LIGGA TELECOMUNICACOES S.A.",
			"website": "https://www.liggatelecom.com.br/site/",
			"notes": "",
			"address1": "Rua Treze de Maio, 1062",
			"address2": "",
			"city": "Curitiba",
			"country": "BR",
			"state": "PR",
			"zipcode": "80510-030",
			"floor": "",
			"suite": "",
			"latitude": -25.425745,
			"longitude": -49.276513,
			"created": "2013-07-17T13:35:12Z",
			"updated": "2022-05-16T17:31:49Z",
			"status": "ok"
		},
		{
			"id": 9172,
			"name": "DELTA INTERNET",
			"aka": "",
			"name_long": "",
			"website": "http://www.deltainternet.net.br",
			"notes": "",
			"address1": "",
			"address2": "",
			"city": "Maringá",
			"country": "BR",
			"state": "pr",
			"zipcode": "",
			"floor": "",
			"suite": "",
			"latitude": null,
			"longitude": null,
			"created": "2014-04-23T12:38:36Z",
			"updated": "2020-07-25T22:52:46Z",
			"status": "ok"
		},
		{
			"id": 10287,
			"name": "ForNet Telecom",
			"aka": "",
			"name_long": "",
			"website": "http://www.fornet.com.br",
			"notes": "",
			"address1": "Rua Paraiba, 1785",
			"address2": "",
			"city": "Paranavaí",
			"country": "BR",
			"state": "PR",
			"zipcode": "87701080",
			"floor": "",
			"suite": "",
			"latitude": null,
			"longitude": null,
			"created": "2014-10-08T09:10:39Z",
			"updated": "2020-12-16T20:28:49Z",
			"status": "ok"
		},
		{
			"id": 11312,
			"name": "Solucao Network Provedor",
			"aka": "",
			"name_long": "",
			"website": "http://www.solucaonetwork.com",
			"notes": "",
			"address1": "Rua Luiz Spigolon, 2150",
			"address2": "",
			"city": "Paranavai",
			"country": "BR",
			"state": "PR",
			"zipcode": "87705130",
			"floor": "",
			"suite": "",
			"latitude": null,
			"longitude": null,
			"created": "2015-02-26T07:25:05Z",
			"updated": "2020-06-14T23:15:59Z",
			"status": "ok"
		},
		{
			"id": 11936,
			"name": "Hoinaski & Sklasky Ltda",
			"aka": "PIX-DBUG (IX-PR)",
			"name_long": "",
			"website": "http://www.dbug.com.br",
			"notes": "DC Dbug Telecom",
			"address1": "Rua José De Alencar, 60",
			"address2": "Cristo Rei",
			"city": "Curitiba",
			"country": "BR",
			"state": "PR",
			"zipcode": "80050-240",
			"floor": "",
			"suite": "",
			"latitude": -25.434845,
			"longitude": -49.254228,
			"created": "2014-07-02T10:22:39Z",
			"updated": "2021-08-23T13:48:35Z",
			"status": "ok"
		},
		{
			"id": 11967,
			"name": "MGP TELECOM",
			"aka": "MGP Telecom",
			"name_long": "MGP Telecom",
			"website": "http://www.mgptelecom.com.br",
			"notes": "",
			"address1": "Rua Itapoã, 1413",
			"address2": "Conjunto João De Barro Itaparica",
			"city": "Maringá",
			"country": "BR",
			"state": "PR",
			"zipcode": "87043-520",
			"floor": "",
			"suite": "",
			"latitude": -23.395326,
			"longitude": -51.889657,
			"created": "2015-04-10T15:25:41Z",
			"updated": "2021-10-18T14:54:06Z",
			"status": "ok"
		},
		{
			"id": 12298,
			"name": "Central Server Informática Ltda",
			"aka": "CentralServer",
			"name_long": "Central Server Informática Ltda",
			"website": "https://www.centralserver.com.br",
			"notes": "",
			"address1": "Rua Ubaldino Do Amaral, 927",
			"address2": "Alto Da Rua XV",
			"city": "Curitiba",
			"country": "BR",
			"state": "PR",
			"zipcode": "80045-150",
			"floor": "",
			"suite": "",
			"latitude": -25.428894,
			"longitude": -49.257779,
			"created": "2013-07-17T13:31:14Z",
			"updated": "2022-01-04T13:13:27Z",
			"status": "ok"
		},
		{
			"id": 13692,
			"name": "OSNET Wireless",
			"aka": "OSNET",
			"name_long": "OSNET",
			"website": "http://w2.osnetpr.net",
			"notes": "",
			"address1": "2 Urb Gomez",
			"address2": "",
			"city": "Humacao",
			"country": "PR",
			"state": "PR",
			"zipcode": "00791-4224",
			"floor": "",
			"suite": "",
			"latitude": 18.1295,
			"longitude": -65.8202,
			"created": "2016-03-03T03:08:46Z",
			"updated": "2022-05-22T13:47:57Z",
			"status": "ok"
		},
		{
			"id": 14121,
			"name": "Fundacao Parque Tecnologico Itaipu - Brasil",
			"aka": "",
			"name_long": "",
			"website": "http://www.pti.org.br/",
			"notes": "",
			"address1": "Parque Tecnológico Itaipu, 6731 - PTI - Bloco 10 - Espaco 1 - Sala 3 - Jardim Itaipu",
			"address2": "Caixa Postal 2039",
			"city": "Foz do Iguaçu",
			"country": "BR",
			"state": "PR",
			"zipcode": "85867900",
			"floor": "",
			"suite": "",
			"latitude": null,
			"longitude": null,
			"created": "2016-05-04T15:52:03Z",
			"updated": "2020-01-22T16:52:46Z",
			"status": "ok"
		},
		{
			"id": 14499,
			"name": "JS SERVIÇOS E TELECOMUNICAÇÕES LTDA ME",
			"aka": "DOMUNS TELECOM",
			"name_long": "JS SERVIÇOS E TELECOMUNICAÇÕES",
			"website": "https://www.jstelecom.com.br",
			"notes": "",
			"address1": "Avenida José Bonifácio, 767",
			"address2": "",
			"city": "São José das Palmeiras",
			"country": "BR",
			"state": "PR",
			"zipcode": "85898-000",
			"floor": "",
			"suite": "",
			"latitude": null,
			"longitude": null,
			"created": "2016-06-28T19:34:22Z",
			"updated": "2022-08-22T19:10:30Z",
			"status": "ok"
		},
		{
			"id": 14754,
			"name": "Fybernet Teleinformatica Ltda",
			"aka": "",
			"name_long": "",
			"website": "http://www.fibranet.com.br/",
			"notes": "Server Fast Telecom open peering policy.\n\nRelated ASN: AS264380, AS52987\n\nPeering Requests: abuse@serverfast.com.br\n\nPeering Operational Issues: Contact 24x7x365 serverfast@gmail.com",
			"address1": "Rua Prof. Ulisses Vieira, 1566",
			"address2": "Santa Quiteria",
			"city": "Curitiba",
			"country": "BR",
			"state": "PR",
			"zipcode": "80310-120",
			"floor": "",
			"suite": "",
			"latitude": null,
			"longitude": null,
			"created": "2016-08-10T03:33:57Z",
			"updated": "2019-10-18T22:00:33Z",
			"status": "ok"
		},
		{
			"id": 14894,
			"name": "A S Jacobi Informatica",
			"aka": "Ynova Net",
			"name_long": "A S Jacobi Informatica",
			"website": "http://ynovanet.com.br",
			"notes": "",
			"address1": "Av Presidente Kennedy, 478, Centro",
			"address2": "",
			"city": "Palotina",
			"country": "BR",
			"state": "PR",
			"zipcode": "85950000",
			"floor": "",
			"suite": "",
			"latitude": null,
			"longitude": null,
			"created": "2016-08-25T23:03:53Z",
			"updated": "2021-07-14T13:16:23Z",
			"status": "ok"
		},
		{
			"id": 15219,
			"name": "FIBERTELECOM",
			"aka": "",
			"name_long": "",
			"website": "http://www.fibertelecom.net.br/",
			"notes": "",
			"address1": "Avenida Brasil, 51 sala 02 - centro",
			"address2": "",
			"city": "Ângulo",
			"country": "BR",
			"state": "PR",
			"zipcode": "86755-000",
			"floor": "",
			"suite": "",
			"latitude": null,
			"longitude": null,
			"created": "2016-10-05T14:37:08Z",
			"updated": "2016-10-05T14:44:42Z",
			"status": "ok"
		},
		{
			"id": 16929,
			"name": "Speed Max Provedor de Internet Wireless LTDA-ME",
			"aka": "",
			"name_long": "",
			"website": "http://www.speedmaxinternet.com.br",
			"notes": "",
			"address1": "R DA ASSEMBLEIA nº:20 D ALVORADA",
			"address2": "",
			"city": "CONTAGEM",
			"country": "BR",
			"state": "PR",
			"zipcode": "",
			"floor": "",
			"suite": "",
			"latitude": null,
			"longitude": null,
			"created": "2017-05-03T07:54:11Z",
			"updated": "2017-05-25T12:09:25Z",
			"status": "ok"
		},
		{
			"id": 17481,
			"name": "INFO TELECOM INTERNET LTDA",
			"aka": "",
			"name_long": "",
			"website": "http://www.infomaistelecom.com",
			"notes": "",
			"address1": "Rua Padre Hugo, 985, Sala 1, Andar 2",
			"address2": "",
			"city": "Carlopolis",
			"country": "BR",
			"state": "PR",
			"zipcode": "86420000",
			"floor": "",
			"suite": "",
			"latitude": null,
			"longitude": null,
			"created": "2017-07-13T13:49:38Z",
			"updated": "2018-12-21T12:02:46Z",
			"status": "ok"
		},
		{
			"id": 17960,
			"name": "UNIVERSIDADE ESTADUAL DO OESTE DO PARANA",
			"aka": "",
			"name_long": "",
			"website": "http://unioeste.br",
			"notes": "",
			"address1": "RUA UNIVERSITÁRIA 1619",
			"address2": "",
			"city": "CASCAVEL",
			"country": "BR",
			"state": "PR",
			"zipcode": "85819-110",
			"floor": "",
			"suite": "",
			"latitude": null,
			"longitude": null,
			"created": "2017-09-06T11:33:46Z",
			"updated": "2019-12-09T12:35:36Z",
			"status": "ok"
		},
		{
			"id": 18196,
			"name": "iFoz Telecom",
			"aka": "iFoz Telecom",
			"name_long": "DataLinux Informatica Ltda",
			"website": "http://www.ifoz.com.br",
			"notes": "",
			"address1": "Avenida Safira",
			"address2": "Parque Ouro Verde",
			"city": "Foz do Iguaçu",
			"country": "BR",
			"state": "PR",
			"zipcode": "85854000",
			"floor": "",
			"suite": "",
			"latitude": null,
			"longitude": null,
			"created": "2017-10-09T19:50:47Z",
			"updated": "2021-07-12T18:04:24Z",
			"status": "ok"
		},
		{
			"id": 18446,
			"name": "ATK Telecomunicações Ltda.",
			"aka": "",
			"name_long": "",
			"website": "http://www.atualtek.com.br",
			"notes": "",
			"address1": "Avenida Brasil, 340",
			"address2": "",
			"city": "Terra Boa",
			"country": "BR",
			"state": "PR",
			"zipcode": "87240000",
			"floor": "",
			"suite": "",
			"latitude": null,
			"longitude": null,
			"created": "2017-11-10T17:42:09Z",
			"updated": "2017-11-10T17:45:07Z",
			"status": "ok"
		},
		{
			"id": 18704,
			"name": "BLZNET SERVICOS DE INTERNET LTDA - ME",
			"aka": "",
			"name_long": "",
			"website": "http://www.blz.net.br/",
			"notes": "",
			"address1": "Rua Harrison José Borges, 1154",
			"address2": "Centro",
			"city": "Campo Mourão",
			"country": "BR",
			"state": "PR",
			"zipcode": "87303-130",
			"floor": "",
			"suite": "",
			"latitude": -24.042568,
			"longitude": -52.377161,
			"created": "2017-12-08T13:18:02Z",
			"updated": "2022-01-28T14:09:29Z",
			"status": "ok"
		},
		{
			"id": 19105,
			"name": "FLEXNET TELECOMUNICACOES EIRELI EPP",
			"aka": "FlexNet Telecom",
			"name_long": "",
			"website": "http://www.flexnettelecom.com.br",
			"notes": "",
			"address1": "Rua Inglaterra, Nº1240",
			"address2": "",
			"city": "Alto Parana",
			"country": "BR",
			"state": "PR",
			"zipcode": "87750000",
			"floor": "",
			"suite": "",
			"latitude": null,
			"longitude": null,
			"created": "2018-02-08T14:01:05Z",
			"updated": "2021-11-24T14:57:06Z",
			"status": "ok"
		},
		{
			"id": 19263,
			"name": "Romagnole Produtos Eletricos S.A.",
			"aka": "",
			"name_long": "",
			"website": "https://www.romagnole.com.br",
			"notes": "",
			"address1": "",
			"address2": "",
			"city": "Mandaguari",
			"country": "BR",
			"state": "PR",
			"zipcode": "86975000",
			"floor": "",
			"suite": "",
			"latitude": null,
			"longitude": null,
			"created": "2018-02-28T13:33:51Z",
			"updated": "2018-02-28T15:49:16Z",
			"status": "ok"
		},
		{
			"id": 19615,
			"name": "TELECOMUNICAÇÃO REACH",
			"aka": "",
			"name_long": "",
			"website": "http://www.reach.net.br",
			"notes": "",
			"address1": "Av Americo Belay 2811",
			"address2": "",
			"city": "Maringá",
			"country": "BR",
			"state": "PR",
			"zipcode": "87025210",
			"floor": "",
			"suite": "",
			"latitude": null,
			"longitude": null,
			"created": "2018-04-10T14:59:20Z",
			"updated": "2018-04-10T15:25:32Z",
			"status": "ok"
		},
		{
			"id": 20025,
			"name": "L.G. BENATO INFORMATICA - ME",
			"aka": "",
			"name_long": "",
			"website": "https://www.foxtelecominformatica.com.br/",
			"notes": "",
			"address1": "AV. PEROLA BYINGTON 1660",
			"address2": "",
			"city": "Perola",
			"country": "BR",
			"state": "PR",
			"zipcode": "87540-000",
			"floor": "",
			"suite": "",
			"latitude": null,
			"longitude": null,
			"created": "2018-05-23T17:53:54Z",
			"updated": "2020-10-31T15:50:07Z",
			"status": "ok"
		},
		{
			"id": 20042,
			"name": "Dvoranem E Fernandes Ltda",
			"aka": "",
			"name_long": "",
			"website": "https://www.grupodoublenet.com.br",
			"notes": "",
			"address1": "RUA PADRE JOSE DE ANCHIETA",
			"address2": "1070 - CENTRO",
			"city": "Altonia",
			"country": "BR",
			"state": "PR",
			"zipcode": "87550-000",
			"floor": "",
			"suite": "",
			"latitude": null,
			"longitude": null,
			"created": "2018-05-24T17:26:05Z",
			"updated": "2021-01-22T16:20:05Z",
			"status": "ok"
		},
		{
			"id": 20748,
			"name": "TSS SOFTWARE LTDA ME",
			"aka": "",
			"name_long": "",
			"website": "http://www.conexaointernet.com.br",
			"notes": "",
			"address1": "Av. Desembargador Munhoz de Mello, 1520",
			"address2": "",
			"city": "Loanda",
			"country": "BR",
			"state": "PR",
			"zipcode": "87900-000",
			"floor": "",
			"suite": "",
			"latitude": null,
			"longitude": null,
			"created": "2018-08-25T21:47:03Z",
			"updated": "2018-08-26T12:53:47Z",
			"status": "ok"
		},
		{
			"id": 21385,
			"name": "GV telecomunicações LTDA - ME",
			"aka": "",
			"name_long": "RODRIGO V GOBBO",
			"website": "http://www.webnett.net.br",
			"notes": "",
			"address1": "Rua Dr. João Pessoa, 270",
			"address2": "Rua Antonio Cirelli, 276",
			"city": "Ribeirão Claro",
			"country": "BR",
			"state": "PR",
			"zipcode": "86410-000",
			"floor": "",
			"suite": "",
			"latitude": -23.199072,
			"longitude": -49.761052,
			"created": "2018-11-08T12:05:18Z",
			"updated": "2021-10-04T12:04:19Z",
			"status": "ok"
		},
		{
			"id": 22380,
			"name": "NOVA FIBRA TELECOM S.A.",
			"aka": "",
			"name_long": "",
			"website": "http://www.novafibratelecom.com.br",
			"notes": "",
			"address1": "Rua Augusto Stresser, 453",
			"address2": "R. Jandaia do Sul, 659",
			"city": "Curitiba",
			"country": "BR",
			"state": "PR",
			"zipcode": "80040-310",
			"floor": "",
			"suite": "",
			"latitude": null,
			"longitude": null,
			"created": "2019-03-13T13:57:00Z",
			"updated": "2020-04-01T13:55:26Z",
			"status": "ok"
		},
		{
			"id": 22476,
			"name": "VIAR TELECOMUNICAÇÕES LTDA",
			"aka": "Viar Telecom",
			"name_long": "VIAR TELECOMUNICAÇÕES LTDA",
			"website": "http://viarnet.com.br",
			"notes": "",
			"address1": "Avenida José Callegari, 939 Centro",
			"address2": "",
			"city": "Medianeira",
			"country": "BR",
			"state": "PR",
			"zipcode": "85884000",
			"floor": "",
			"suite": "",
			"latitude": null,
			"longitude": null,
			"created": "2019-03-27T12:53:39Z",
			"updated": "2022-11-01T20:20:38Z",
			"status": "ok"
		},
		{
			"id": 22931,
			"name": "e@sy Internet",
			"aka": "",
			"name_long": "",
			"website": "http://www.easy.psi.br",
			"notes": "",
			"address1": "Rua Mário Nogueira, 55",
			"address2": "",
			"city": "Ponta Grossa",
			"country": "BR",
			"state": "PR",
			"zipcode": "84031-410",
			"floor": "",
			"suite": "",
			"latitude": null,
			"longitude": null,
			"created": "2019-05-23T20:22:32Z",
			"updated": "2019-05-24T14:40:35Z",
			"status": "ok"
		},
		{
			"id": 22952,
			"name": "INFORADIO SERVICOS DE COMUNICACAO MULTIMIDIA LTDA",
			"aka": "",
			"name_long": "",
			"website": "http://www.inforadio.net.br",
			"notes": "",
			"address1": "R. 33 n 1880",
			"address2": "",
			"city": "Paranaguá",
			"country": "BR",
			"state": "PR",
			"zipcode": "83252000",
			"floor": "",
			"suite": "",
			"latitude": null,
			"longitude": null,
			"created": "2019-05-27T11:40:24Z",
			"updated": "2019-05-27T15:09:34Z",
			"status": "ok"
		},
		{
			"id": 23148,
			"name": "BRF S.A",
			"aka": "",
			"name_long": "",
			"website": "https://www.brf-global.com/",
			"notes": "",
			"address1": "Rodovia BR 277",
			"address2": "Rodovia BR 277",
			"city": "curitiba",
			"country": "BR",
			"state": "PR",
			"zipcode": "82.305-100",
			"floor": "",
			"suite": "",
			"latitude": null,
			"longitude": null,
			"created": "2019-06-19T13:29:03Z",
			"updated": "2019-06-19T14:06:57Z",
			"status": "ok"
		},
		{
			"id": 23180,
			"name": "PEDRO IVO SAVARIS & CIA. LTDA - ME",
			"aka": "",
			"name_long": "",
			"website": "http://www.seniorpc.com.br",
			"notes": "",
			"address1": "Rua Paraná 284",
			"address2": "Rua 15 de Novembro 813",
			"city": "Guapirama",
			"country": "BR",
			"state": "Pr",
			"zipcode": "86465000",
			"floor": "",
			"suite": "",
			"latitude": null,
			"longitude": null,
			"created": "2019-06-23T20:37:26Z",
			"updated": "2019-11-13T20:45:37Z",
			"status": "ok"
		},
		{
			"id": 23450,
			"name": "Aeronet Wireless Broadband LLC",
			"aka": "",
			"name_long": "",
			"website": "http://www.aeronetpr.com",
			"notes": "",
			"address1": "Metro Office Park 18",
			"address2": "Suite 303",
			"city": "Guaynabo",
			"country": "PR",
			"state": "PR",
			"zipcode": "00968",
			"floor": "",
			"suite": "",
			"latitude": null,
			"longitude": null,
			"created": "2019-07-27T16:08:16Z",
			"updated": "2019-11-12T01:57:28Z",
			"status": "ok"
		},
		{
			"id": 23672,
			"name": "Fabiane Trento Informatica ME",
			"aka": "",
			"name_long": "",
			"website": "http://www.agorai9.com.br",
			"notes": "",
			"address1": "RUA MANOEL LOPES DE OLIVEIRA",
			"address2": "RUA MANOEL LOPES DE OLIVEIRA",
			"city": "Candói",
			"country": "BR",
			"state": "PR",
			"zipcode": "85140-000",
			"floor": "",
			"suite": "",
			"latitude": null,
			"longitude": null,
			"created": "2019-08-23T12:20:04Z",
			"updated": "2020-06-09T19:50:52Z",
			"status": "ok"
		},
		{
			"id": 23911,
			"name": "Comp Internet",
			"aka": "Comp",
			"name_long": "Comp Internet",
			"website": "http://www.comp.net.br",
			"notes": "",
			"address1": "Av. Bento Munhoz da Rocha Neto, 4796",
			"address2": "",
			"city": "Paranaguá",
			"country": "BR",
			"state": "PR",
			"zipcode": "83215000",
			"floor": "",
			"suite": "",
			"latitude": null,
			"longitude": null,
			"created": "2019-09-24T00:57:32Z",
			"updated": "2022-11-24T20:12:33Z",
			"status": "ok"
		},
		{
			"id": 24105,
			"name": "TRIBUNAL DE CONTAS DO ESTADO DO PARANA",
			"aka": "",
			"name_long": "",
			"website": "http://www1.tce.pr.gov.br",
			"notes": "",
			"address1": "Praca Nossa Senhora de Salete",
			"address2": "",
			"city": "Curitiba",
			"country": "BR",
			"state": "PR",
			"zipcode": "80530-910",
			"floor": "",
			"suite": "",
			"latitude": null,
			"longitude": null,
			"created": "2019-10-15T13:20:10Z",
			"updated": "2019-10-15T13:23:53Z",
			"status": "ok"
		},
		{
			"id": 24245,
			"name": "University of Puerto Rico",
			"aka": "",
			"name_long": "",
			"website": "https://www.upr.edu",
			"notes": "",
			"address1": "Jardin Botanico Sur",
			"address2": "1187 Calle Flamboyan",
			"city": "San Juan",
			"country": "PR",
			"state": "PR",
			"zipcode": "00926-1117",
			"floor": "",
			"suite": "",
			"latitude": null,
			"longitude": null,
			"created": "2019-11-01T19:40:48Z",
			"updated": "2019-11-01T19:43:34Z",
			"status": "ok"
		},
		{
			"id": 24405,
			"name": "Gigifiber Networks, LLC",
			"aka": "Gigifi Networks",
			"name_long": "Gigifi Networks",
			"website": "https://www.gigifinet.com/",
			"notes": "",
			"address1": "Carr. PR #1 Km. 24.2 Bo. Quebrada Arenas Sector Buen Pastor",
			"address2": "",
			"city": "San Juan",
			"country": "PR",
			"state": "PR",
			"zipcode": "00926",
			"floor": "",
			"suite": "",
			"latitude": 18.313363,
			"longitude": -66.08252,
			"created": "2019-11-19T22:22:06Z",
			"updated": "2021-10-06T13:32:40Z",
			"status": "ok"
		},
		{
			"id": 24561,
			"name": "PROTEK INFORMATICA EIRELI ME",
			"aka": "",
			"name_long": "",
			"website": "",
			"notes": "",
			"address1": "R. Esteliano Pizato, 123",
			"address2": "",
			"city": "General Carneiro",
			"country": "BR",
			"state": "PR",
			"zipcode": "84660-000",
			"floor": "",
			"suite": "",
			"latitude": null,
			"longitude": null,
			"created": "2019-12-09T12:22:37Z",
			"updated": "2020-06-18T15:20:05Z",
			"status": "ok"
		},
		{
			"id": 24562,
			"name": "Fourfibras Serviços de Telecom",
			"aka": "Fourfibras",
			"name_long": "Fourfibras Serviços de Telecom LTDA",
			"website": "https://fourfibras.com.br",
			"notes": "",
			"address1": "Rua Alderico Bandeira de Lima, 1203",
			"address2": "Campina Grande do Sul - PR",
			"city": "Campina Grande do Sul",
			"country": "BR",
			"state": "PR",
			"zipcode": "83430-000",
			"floor": "",
			"suite": "",
			"latitude": -25.365517,
			"longitude": -49.103009,
			"created": "2019-12-09T12:23:27Z",
			"updated": "2022-10-06T16:38:51Z",
			"status": "ok"
		},
		{
			"id": 24644,
			"name": "Nustream Communications",
			"aka": "",
			"name_long": "",
			"website": "http://www.nustream.com",
			"notes": "",
			"address1": "316 Avenida De La Constitucion",
			"address2": "",
			"city": "San Juan, Puerta de Tierra",
			"country": "PR",
			"state": "PR",
			"zipcode": "00901",
			"floor": "",
			"suite": "",
			"latitude": null,
			"longitude": null,
			"created": "2019-12-11T18:44:24Z",
			"updated": "2020-02-01T00:37:12Z",
			"status": "ok"
		},
		{
			"id": 25235,
			"name": "MTWNET SERVICOS DE COMUNICACAO MULTIMIDIA LTDA",
			"aka": "",
			"name_long": "",
			"website": "http://www.mtwnet.com.br",
			"notes": "",
			"address1": "Rua Jorge Luiz Freygang",
			"address2": "",
			"city": "Curitiba",
			"country": "BR",
			"state": "PR",
			"zipcode": "81590-590",
			"floor": "",
			"suite": "",
			"latitude": null,
			"longitude": null,
			"created": "2020-02-19T19:15:05Z",
			"updated": "2020-02-19T19:16:26Z",
			"status": "ok"
		},
		{
			"id": 26471,
			"name": "Duomo",
			"aka": "",
			"name_long": "",
			"website": "",
			"notes": "",
			"address1": "",
			"address2": "",
			"city": "Cayey",
			"country": "PR",
			"state": "PR",
			"zipcode": "00736",
			"floor": "",
			"suite": "",
			"latitude": null,
			"longitude": null,
			"created": "2020-06-22T18:42:10Z",
			"updated": "2020-06-23T01:06:02Z",
			"status": "ok"
		},
		{
			"id": 26588,
			"name": "DRM SERVICOS DE TELECOMUNICACOES EIRELI -ME",
			"aka": "MAXXTELECOM",
			"name_long": "",
			"website": "http://maxxtelecomisp.com.br",
			"notes": "",
			"address1": "",
			"address2": "",
			"city": "Ibaiti",
			"country": "BR",
			"state": "PR",
			"zipcode": "84900000",
			"floor": "",
			"suite": "",
			"latitude": null,
			"longitude": null,
			"created": "2020-07-04T13:47:22Z",
			"updated": "2021-06-08T14:38:13Z",
			"status": "ok"
		},
		{
			"id": 26798,
			"name": "DR INTERNET LTDA",
			"aka": "Digiplus Internet",
			"name_long": "DR INTERNET LTDA",
			"website": "https://digiplus.net.br",
			"notes": "",
			"address1": "Rua Duque De Caxias, 649",
			"address2": "Mangueirinha - PR",
			"city": "Mangueirinha",
			"country": "BR",
			"state": "PR",
			"zipcode": "85540-000",
			"floor": "",
			"suite": "",
			"latitude": -25.940101,
			"longitude": -52.178244,
			"created": "2020-07-24T12:23:49Z",
			"updated": "2021-11-26T12:51:51Z",
			"status": "ok"
		},
		{
			"id": 26846,
			"name": "INNON - OPERADORA DE SERVICOS MULTIMIDIA LTDA",
			"aka": "",
			"name_long": "",
			"website": "https://www.innon.com.br/",
			"notes": "",
			"address1": "R. José Cavassin, 342 - Centro",
			"address2": "",
			"city": "Colombo",
			"country": "BR",
			"state": "PR",
			"zipcode": "83414-120",
			"floor": "",
			"suite": "",
			"latitude": null,
			"longitude": null,
			"created": "2020-07-30T14:59:46Z",
			"updated": "2020-07-31T18:40:56Z",
			"status": "ok"
		},
		{
			"id": 26923,
			"name": "ON Serviços Digitais EIRELI - EPP",
			"aka": "",
			"name_long": "",
			"website": "https://www.onnetdigital.com.br/",
			"notes": "",
			"address1": "R. Felipe Justos, 410",
			"address2": "Sala B - Boa Vista",
			"city": "Ponta Grossa",
			"country": "BR",
			"state": "PR",
			"zipcode": "84070-480",
			"floor": "",
			"suite": "",
			"latitude": null,
			"longitude": null,
			"created": "2020-08-06T18:29:51Z",
			"updated": "2020-08-06T18:56:31Z",
			"status": "ok"
		},
		{
			"id": 26982,
			"name": "CampoNet",
			"aka": "",
			"name_long": "CAMPONET",
			"website": "https://camponet.com.br",
			"notes": "",
			"address1": "Rua Prefeito Devete De Paula Xavier, 288",
			"address2": "Centro Campo Mourão",
			"city": "Campo Mourão",
			"country": "BR",
			"state": "PR",
			"zipcode": "87301-100",
			"floor": "",
			"suite": "",
			"latitude": -24.047139,
			"longitude": -52.381373,
			"created": "2020-08-15T19:10:27Z",
			"updated": "2022-01-10T22:26:28Z",
			"status": "ok"
		},
		{
			"id": 27031,
			"name": "SARA ONLINE INFORMATICA EIRELI - ME",
			"aka": "Sara",
			"name_long": "Sara Leandra Hernandes Riche Serenini",
			"website": "",
			"notes": "",
			"address1": "Avenida José Madureira, 979",
			"address2": "São Tomé - PR",
			"city": "São Tomé",
			"country": "BR",
			"state": "PR",
			"zipcode": "87220-000",
			"floor": "",
			"suite": "",
			"latitude": -23.533676,
			"longitude": -52.587198,
			"created": "2020-08-19T15:05:51Z",
			"updated": "2021-06-10T11:41:43Z",
			"status": "ok"
		},
		{
			"id": 27202,
			"name": "A C ROCHA INFORMATICA LTDA",
			"aka": "",
			"name_long": "",
			"website": "http://ifnet.com.br",
			"notes": "",
			"address1": "Av Pres Castelo Branco",
			"address2": "2173, Centro",
			"city": "Iporã",
			"country": "BR",
			"state": "PR",
			"zipcode": "87560-000",
			"floor": "",
			"suite": "",
			"latitude": null,
			"longitude": null,
			"created": "2020-09-02T13:37:15Z",
			"updated": "2020-09-02T14:43:34Z",
			"status": "ok"
		},
		{
			"id": 27519,
			"name": "HV COM. DE PROD. E SERV.DE INFORMATICA LTDA",
			"aka": "DOMUNS TELECOM",
			"name_long": "DOMUNS TELECOM",
			"website": "https://www.domustelecom.com.br/",
			"notes": "",
			"address1": "Avenida Maripa, 750",
			"address2": "Marechal Cândido Rondon - PR",
			"city": "Marechal Cândido Rondon",
			"country": "BR",
			"state": "PR",
			"zipcode": "85960-000",
			"floor": "",
			"suite": "",
			"latitude": -24.557501,
			"longitude": -54.056772,
			"created": "2020-10-05T20:10:37Z",
			"updated": "2022-08-05T15:56:22Z",
			"status": "ok"
		},
		{
			"id": 27815,
			"name": "Webifibra",
			"aka": "Webifibra",
			"name_long": "G.W. DA SILVA SERVICOS DE COMUNICACAO MULTIMIDIA",
			"website": "http://www.webifibra.com.br",
			"notes": "",
			"address1": "Rua Major Otávio Novaes, 19",
			"address2": "Centro",
			"city": "Castro",
			"country": "BR",
			"state": "PR",
			"zipcode": "84165-230",
			"floor": "",
			"suite": "",
			"latitude": -24.790568,
			"longitude": -50.007758,
			"created": "2020-11-10T14:24:03Z",
			"updated": "2022-08-15T19:50:09Z",
			"status": "ok"
		},
		{
			"id": 27950,
			"name": "TELXE DO BRASIL TELECOMUNICAÇÕES LTDA",
			"aka": "TELXE DO BRASIL TELECOMUNICAÇÕES LTDA",
			"name_long": "TELXE DO BRASIL TELECOMUNICAÇÕES LTDA",
			"website": "https://telxe.com.br/",
			"notes": "",
			"address1": "Rua Pedro Américo",
			"address2": "Rua Pedro Américo",
			"city": "Curitiba",
			"country": "BR",
			"state": "PR",
			"zipcode": "81110-010",
			"floor": "1",
			"suite": "275",
			"latitude": null,
			"longitude": null,
			"created": "2020-11-26T16:22:18Z",
			"updated": "2022-02-25T20:49:40Z",
			"status": "ok"
		},
		{
			"id": 28388,
			"name": "FiberX Inc.",
			"aka": "",
			"name_long": "",
			"website": "http://www.fiberx.net",
			"notes": "",
			"address1": "Urb. Forest Hills B-60 Calle Chile Esquina Atenas",
			"address2": "",
			"city": "Bayamon",
			"country": "PR",
			"state": "PR",
			"zipcode": "00959",
			"floor": "",
			"suite": "",
			"latitude": null,
			"longitude": null,
			"created": "2021-01-20T12:50:07Z",
			"updated": "2021-01-20T14:08:40Z",
			"status": "ok"
		},
		{
			"id": 29128,
			"name": "GTV Internet",
			"aka": "GTV FIBRA",
			"name_long": "GTV FIBRA",
			"website": "http://www.gtvfibra.com.br",
			"notes": "",
			"address1": "Avenida Brasil",
			"address2": "Avenida Brasil",
			"city": "CASCAVEL",
			"country": "BR",
			"state": "PR",
			"zipcode": "85807-03",
			"floor": "",
			"suite": "",
			"latitude": -24.953465,
			"longitude": -53.490247,
			"created": "2021-04-08T19:53:36Z",
			"updated": "2021-04-09T11:44:01Z",
			"status": "ok"
		},
		{
			"id": 29371,
			"name": "EXABYTE TECNOLOGIA LTDA. - ME",
			"aka": "3Ws",
			"name_long": "Exabyte Tecnologia",
			"website": "http://www.3wstelecom.com.br",
			"notes": "",
			"address1": "avenida Parana, 581",
			"address2": "",
			"city": "Jaguapita",
			"country": "BR",
			"state": "PR",
			"zipcode": "",
			"floor": "",
			"suite": "",
			"latitude": -23.112003,
			"longitude": -51.530439,
			"created": "2021-04-30T22:28:33Z",
			"updated": "2021-05-03T13:28:52Z",
			"status": "ok"
		},
		{
			"id": 29487,
			"name": "HRcom Inc.",
			"aka": "HRCOM",
			"name_long": "HRcom Inc.",
			"website": "https://www.hrcompr.com/",
			"notes": "",
			"address1": "PR-152R Ave. Jose Zayas Green",
			"address2": "",
			"city": "Barranquitas",
			"country": "PR",
			"state": "PR",
			"zipcode": "00794-1613",
			"floor": "",
			"suite": "",
			"latitude": 18.185886,
			"longitude": -66.310261,
			"created": "2021-05-11T17:13:47Z",
			"updated": "2022-07-25T01:18:31Z",
			"status": "ok"
		},
		{
			"id": 29635,
			"name": "VIP BY NET TELECOMUNICACOES LTDA",
			"aka": "VIP BY NET",
			"name_long": "VIP BY NET TELECOMUNICACOES LTDA",
			"website": "https://vipbynet.com/",
			"notes": "",
			"address1": "",
			"address2": "",
			"city": "Assis Chateaubriand",
			"country": "BR",
			"state": "PR",
			"zipcode": "",
			"floor": "",
			"suite": "",
			"latitude": null,
			"longitude": null,
			"created": "2021-05-28T15:20:15Z",
			"updated": "2021-05-28T15:22:10Z",
			"status": "ok"
		},
		{
			"id": 29646,
			"name": "Quality Net",
			"aka": "",
			"name_long": "",
			"website": "http://www.qualitynet.net.br",
			"notes": "",
			"address1": "Rua duque de caxias",
			"address2": "Rua duque de caxias",
			"city": "Goioerê",
			"country": "BR",
			"state": "PR",
			"zipcode": "87360000",
			"floor": "",
			"suite": "",
			"latitude": null,
			"longitude": null,
			"created": "2021-05-29T14:47:45Z",
			"updated": "2021-05-31T18:26:40Z",
			"status": "ok"
		},
		{
			"id": 29986,
			"name": "JOAO MARCELO DOS SANTOS DRESCH ME",
			"aka": "BIGNETFOZ TELECOM",
			"name_long": "JOAO MARCELO DOS SANTOS DRESCH ME",
			"website": "http://www.bignetfoz.com.br",
			"notes": "",
			"address1": "Rua Recife, 80",
			"address2": "Vila C",
			"city": "Foz Do Iguaçu",
			"country": "BR",
			"state": "PR",
			"zipcode": "85870-240",
			"floor": "",
			"suite": "",
			"latitude": -25.44813,
			"longitude": -54.559759,
			"created": "2021-07-15T17:46:22Z",
			"updated": "2021-10-15T19:18:17Z",
			"status": "ok"
		},
		{
			"id": 30014,
			"name": "HEBIO APARECIDO DALLA LASTRA",
			"aka": "HFG TELECOMUNICACOES",
			"name_long": "HEBIO APARECIDO DALLA LASTRA - ME",
			"website": "http://www.hfgtelecom.com.br/",
			"notes": "",
			"address1": "Avenida Presidente Getúlio Vargas, 848",
			"address2": "Centro",
			"city": "Santa Fé",
			"country": "BR",
			"state": "PR",
			"zipcode": "86770-000",
			"floor": "",
			"suite": "",
			"latitude": -23.038374,
			"longitude": -51.809517,
			"created": "2021-07-19T20:12:15Z",
			"updated": "2021-07-19T20:15:45Z",
			"status": "ok"
		},
		{
			"id": 30133,
			"name": "CAPITAL FIBRA",
			"aka": "CAPITALNET",
			"name_long": "Capitalnet Telecom",
			"website": "http://capitalnet.com.br/",
			"notes": "",
			"address1": "Rua João Quirino Leal, 1552",
			"address2": "Veneza",
			"city": "Fazenda Rio Grande",
			"country": "BR",
			"state": "PR",
			"zipcode": "83825-100",
			"floor": "",
			"suite": "",
			"latitude": -25.698001,
			"longitude": -49.302137,
			"created": "2021-08-04T17:32:25Z",
			"updated": "2022-08-11T02:44:19Z",
			"status": "ok"
		},
		{
			"id": 30208,
			"name": "oliveira & sousa comunicações Ltda",
			"aka": "KonexInternet",
			"name_long": "oliveira e sousa comunicaçoes ltda",
			"website": "http://konexinternet.com.br",
			"notes": "",
			"address1": "Rua Hugo Maria Do Valle, 718",
			"address2": "Centro",
			"city": "Rolândia",
			"country": "BR",
			"state": "PR",
			"zipcode": "86600-077",
			"floor": "",
			"suite": "",
			"latitude": -23.316801,
			"longitude": -51.367213,
			"created": "2021-08-13T11:11:01Z",
			"updated": "2021-08-13T11:19:05Z",
			"status": "ok"
		},
		{
			"id": 30304,
			"name": "OHR TELECOM EIRELI",
			"aka": "OHR TELECOM",
			"name_long": "OHR TELECOM EIRELI",
			"website": "http://www.ohrtelecom.com.br/",
			"notes": "",
			"address1": "Rua Pasteur, 463",
			"address2": "Água Verde",
			"city": "Curitiba",
			"country": "BR",
			"state": "PR",
			"zipcode": "80250-104",
			"floor": "",
			"suite": "",
			"latitude": -25.443717,
			"longitude": -49.278986,
			"created": "2021-08-23T20:49:29Z",
			"updated": "2021-08-25T15:58:17Z",
			"status": "ok"
		},
		{
			"id": 30537,
			"name": "MPS Informatica",
			"aka": "",
			"name_long": "",
			"website": "http://www.mps.com.br",
			"notes": "",
			"address1": "Rua Tapajós, 186",
			"address2": "",
			"city": "Curitiba",
			"country": "BR",
			"state": "PR",
			"zipcode": "80510-330",
			"floor": "",
			"suite": "",
			"latitude": -25.421186,
			"longitude": -49.281521,
			"created": "2021-09-21T12:28:17Z",
			"updated": "2021-09-21T13:15:24Z",
			"status": "ok"
		},
		{
			"id": 30668,
			"name": "WINOV SOLUÇÕES EM TECNOLOGIA SA",
			"aka": "Winov",
			"name_long": "Winov Soluções em Tecnologia SA",
			"website": "https://www.winov.com.br/",
			"notes": "",
			"address1": "Avenida Iguaçu, 2820",
			"address2": "Água Verde",
			"city": "Curitiba",
			"country": "BR",
			"state": "PR",
			"zipcode": "80240-031",
			"floor": "",
			"suite": "",
			"latitude": -25.449077,
			"longitude": -49.28854,
			"created": "2021-10-05T12:15:15Z",
			"updated": "2021-10-07T12:19:06Z",
			"status": "ok"
		},
		{
			"id": 30831,
			"name": "INTERSUL TELECOM COMUNICAÇÕES EIRELI ME",
			"aka": "INTERSUL TELECOM LTDA",
			"name_long": "INTERSUL TELECOM COMUNICAÇÕES EIRELI ME",
			"website": "http://www.intersultelecom.com/",
			"notes": "",
			"address1": "Avenida Campos Elíseos, 270",
			"address2": "Jardim Bela Vista",
			"city": "Paiçandu",
			"country": "BR",
			"state": "PR",
			"zipcode": "87140-000",
			"floor": "",
			"suite": "",
			"latitude": -23.449657,
			"longitude": -52.028273,
			"created": "2021-10-25T14:37:02Z",
			"updated": "2022-05-09T20:48:20Z",
			"status": "ok"
		},
		{
			"id": 30974,
			"name": "UGSWORLD",
			"aka": "Unified Global Solutions Corp",
			"name_long": "Unified Global Solutions Corp",
			"website": "http://www.ugsworld.com",
			"notes": "",
			"address1": "",
			"address2": "",
			"city": "San Juan",
			"country": "PR",
			"state": "PR",
			"zipcode": "00918",
			"floor": "",
			"suite": "",
			"latitude": null,
			"longitude": null,
			"created": "2021-11-09T01:26:35Z",
			"updated": "2021-11-09T12:20:44Z",
			"status": "ok"
		},
		{
			"id": 31019,
			"name": "SIX INTERNET LTDA",
			"aka": "SIX INTERNET",
			"name_long": "SIX IINTERNET",
			"website": "http://www.sixinternet.com.br",
			"notes": "",
			"address1": "Avenida Winston Churchill, 1824 Sala 710",
			"address2": "Capão Raso",
			"city": "Curitiba",
			"country": "BR",
			"state": "PR",
			"zipcode": "81130-000",
			"floor": "7º Andar",
			"suite": "Curitiba",
			"latitude": -25.512196,
			"longitude": -49.296029,
			"created": "2021-11-12T23:36:14Z",
			"updated": "2022-09-22T03:28:54Z",
			"status": "ok"
		},
		{
			"id": 31194,
			"name": "NAVEX INTERNET LTDA",
			"aka": "NAVEXINTERNET",
			"name_long": "",
			"website": "http://www.navexinternet.com.br",
			"notes": "",
			"address1": "Rua Hélio Dalprá, 22",
			"address2": "Guaraituba",
			"city": "Colombo",
			"country": "BR",
			"state": "PR",
			"zipcode": "83407-400",
			"floor": "",
			"suite": "",
			"latitude": -25.349726,
			"longitude": -49.177758,
			"created": "2021-12-03T11:31:29Z",
			"updated": "2021-12-03T11:48:06Z",
			"status": "ok"
		},
		{
			"id": 31433,
			"name": "MUNDIAL TELECOMUNICACAO LTDA - ME",
			"aka": "MUNDIAL TELECOM",
			"name_long": "MUNDIAL TELECOMUNICACAO LTDA - ME",
			"website": "https://mundialtelecom.com.br/",
			"notes": "",
			"address1": "Avenida Das Pombas, 1826",
			"address2": "Floresta",
			"city": "Cascavel",
			"country": "BR",
			"state": "PR",
			"zipcode": "85814-800",
			"floor": "",
			"suite": "",
			"latitude": -24.918044,
			"longitude": -53.417594,
			"created": "2022-01-06T22:17:13Z",
			"updated": "2022-01-06T22:23:16Z",
			"status": "ok"
		},
		{
			"id": 31638,
			"name": "ISUPER TELECOMUNICACOES INFO LTDA",
			"aka": "iSUPER Telecom",
			"name_long": "iSUPER Telecom",
			"website": "https://www.isuper.com.br/",
			"notes": "",
			"address1": "Rua Presidente Nereu Ramos, 1022",
			"address2": "Marialva - PR",
			"city": "Marialva",
			"country": "BR",
			"state": "PR",
			"zipcode": "86990-000",
			"floor": "",
			"suite": "",
			"latitude": -23.488215,
			"longitude": -51.795527,
			"created": "2022-02-01T13:58:23Z",
			"updated": "2022-02-01T14:00:22Z",
			"status": "ok"
		},
		{
			"id": 31681,
			"name": "N. R. LOPES RODRIGUES PEPE - ME",
			"aka": "Potencial VIP",
			"name_long": "N. R. LOPES RODRIGUES PEPE - ME",
			"website": "",
			"notes": "",
			"address1": "AV MINAS GERAIS 410",
			"address2": "AV MINAS GERAIS 410",
			"city": "IVAIPORA",
			"country": "BR",
			"state": "PR",
			"zipcode": "86870-000",
			"floor": "",
			"suite": "",
			"latitude": -24.236669,
			"longitude": -51.666835,
			"created": "2022-02-07T19:41:44Z",
			"updated": "2022-02-07T20:18:08Z",
			"status": "ok"
		},
		{
			"id": 31798,
			"name": "Beltrãonet Telecomunicações LTDA - EPP",
			"aka": "Beltrãonet Telecom",
			"name_long": "Beltrãonet Telecomunicações",
			"website": "http://www.beltraonet.com.br",
			"notes": "",
			"address1": "Rua Florianópolis, 433",
			"address2": "Alvorada",
			"city": "Francisco Beltrão",
			"country": "BR",
			"state": "PR",
			"zipcode": "85601-560",
			"floor": "",
			"suite": "",
			"latitude": -26.073811,
			"longitude": -53.058362,
			"created": "2022-02-23T03:39:59Z",
			"updated": "2022-02-23T12:23:53Z",
			"status": "ok"
		},
		{
			"id": 32085,
			"name": "VPNET INC",
			"aka": "Red Verde",
			"name_long": "VPNET INC",
			"website": "http://www.vpnet.net",
			"notes": "",
			"address1": "Plaza Cidra Mall, Suite 18",
			"address2": "Carr. 172 KM 49.7 , Bo. Bayamón",
			"city": "Cidra",
			"country": "PR",
			"state": "PR",
			"zipcode": "00739",
			"floor": "",
			"suite": "",
			"latitude": 18.177531,
			"longitude": -66.147441,
			"created": "2022-04-04T19:01:55Z",
			"updated": "2022-04-05T21:36:11Z",
			"status": "ok"
		},
		{
			"id": 32261,
			"name": "ODN INC.",
			"aka": "ODN Inc.",
			"name_long": "Only Dedicated Network",
			"website": "https://as205648.net",
			"notes": "",
			"address1": "15 Calle Guerrero Noble",
			"address2": "",
			"city": "San Juan",
			"country": "PR",
			"state": "PR",
			"zipcode": "00913-4535",
			"floor": "",
			"suite": "",
			"latitude": 18.451442,
			"longitude": -66.043783,
			"created": "2022-04-27T18:36:37Z",
			"updated": "2022-04-27T18:38:09Z",
			"status": "ok"
		},
		{
			"id": 32633,
			"name": "The Bit Carrier Comunicações Ltda",
			"aka": "TBC",
			"name_long": "The Bit Carrier Comunicações",
			"website": "http://www.thebitcarrier.com.br",
			"notes": "",
			"address1": "Rua Cruz Machado, 1140",
			"address2": "Invernada do Matadouro",
			"city": "Castro",
			"country": "BR",
			"state": "PR",
			"zipcode": "84174-420",
			"floor": "",
			"suite": "",
			"latitude": -24.798961,
			"longitude": -49.993005,
			"created": "2022-06-19T18:25:01Z",
			"updated": "2022-06-20T16:18:52Z",
			"status": "ok"
		},
		{
			"id": 32867,
			"name": "FibraTec Telecom",
			"aka": "FibraTec",
			"name_long": "FibraTec Telecom",
			"website": "https://fibratec.net.br",
			"notes": "",
			"address1": "Rua Professor Amálio Pinheiro, 20",
			"address2": "Santa Cruz",
			"city": "Guarapuava",
			"country": "BR",
			"state": "PR",
			"zipcode": "85015-440",
			"floor": "",
			"suite": "",
			"latitude": -25.41259,
			"longitude": -51.464208,
			"created": "2022-07-18T21:51:52Z",
			"updated": "2022-08-03T22:24:00Z",
			"status": "ok"
		},
		{
			"id": 32879,
			"name": "JR Networks PR LLC",
			"aka": "JR Networks",
			"name_long": "JR Networks PR LLC",
			"website": "http://jrnetworks.us",
			"notes": "",
			"address1": "Urb. Estancias de carmelina calle 4 C11",
			"address2": "",
			"city": "Trujillo Alto",
			"country": "PR",
			"state": "PR",
			"zipcode": "00976",
			"floor": "",
			"suite": "",
			"latitude": 18.363,
			"longitude": -66.0162,
			"created": "2022-07-19T15:57:52Z",
			"updated": "2022-07-19T16:24:54Z",
			"status": "ok"
		},
		{
			"id": 32884,
			"name": "NOVANET PR",
			"aka": "NOVANET",
			"name_long": "",
			"website": "https://novanetpr.com/",
			"notes": "",
			"address1": "HC 73 Box 4748",
			"address2": "",
			"city": "Naranjito",
			"country": "PR",
			"state": "PR",
			"zipcode": "00719",
			"floor": "",
			"suite": "",
			"latitude": 18.3009,
			"longitude": -66.2439,
			"created": "2022-07-20T06:54:45Z",
			"updated": "2022-07-27T05:24:31Z",
			"status": "ok"
		},
		{
			"id": 33986,
			"name": "SkyTech",
			"aka": "SkyTech",
			"name_long": "SkyTech LLC",
			"website": "https://skytechpr.com/",
			"notes": "",
			"address1": "PMB #567, 405 Ave. Esmeralda, Ste 2 567",
			"address2": "",
			"city": "Guaynabo",
			"country": "PR",
			"state": "PR",
			"zipcode": "00969-4427",
			"floor": "",
			"suite": "",
			"latitude": 18.371122,
			"longitude": -66.100332,
			"created": "2022-12-08T12:58:10Z",
			"updated": "2022-12-08T15:32:04Z",
			"status": "ok"
		}
	],
	"meta": {}
}